{"type":"FeatureCollection","crs":{"type":"name","properties":{"name":"EPSG:3857"}},"features":[{"type":"Feature","id":19,"geometry":{"type":"Point","coordinates":[-9787023.727,4070055.0231999978]},"properties":{"FID":19,"DAM_NAME":"HODGES DAM","LONGITUDE":-87.918329999999997,"LATITUDE":34.306669999999997,"RIVER":"TURNER BOBO BRANCH","YEAR_COMPL":1920,"DAM_HEIGHT":0,"MAX_STORAG":173,"STATE":"AL"}},{"type":"Feature","id":96,"geometry":{"type":"Point","coordinates":[-9532102.0931000002,3718544.2192000002]},"properties":{"FID":96,"DAM_NAME":"EASTERLING MILL POND DAM","LONGITUDE":-85.628330000000005,"LATITUDE":31.658329999999999,"RIVER":"JUDY CREEK","YEAR_COMPL":1900,"DAM_HEIGHT":0,"MAX_STORAG":177,"STATE":"AL"}},{"type":"Feature","id":245,"geometry":{"type":"Point","coordinates":[-9698524.7317999993,3883364.0525999963]},"properties":{"FID":245,"DAM_NAME":"LIGHTSEY S MILL POND DAM","LONGITUDE":-87.123329999999996,"LATITUDE":32.909999999999997,"RIVER":"LIGHTSEY S BRANCH","YEAR_COMPL":1890,"DAM_HEIGHT":0,"MAX_STORAG":80,"STATE":"AL"}},{"type":"Feature","id":247,"geometry":{"type":"Point","coordinates":[-9708543.4859999996,3905041.3442000002]},"properties":{"FID":247,"DAM_NAME":"PEARSON LAKE DAM","LONGITUDE":-87.213329999999999,"LATITUDE":33.073329999999999,"RIVER":"LICKLOG BRANCH","YEAR_COMPL":1880,"DAM_HEIGHT":0,"MAX_STORAG":248,"STATE":"AL"}},{"type":"Feature","id":317,"geometry":{"type":"Point","coordinates":[-9763856.6938000005,4093940.3563999981]},"properties":{"FID":317,"DAM_NAME":"SLOSS LAKE","LONGITUDE":-87.710217,"LATITUDE":34.483721000000003,"RIVER":"PAIN CREEK","YEAR_COMPL":1910,"DAM_HEIGHT":0,"MAX_STORAG":627,"STATE":"AL"}},{"type":"Feature","id":342,"geometry":{"type":"Point","coordinates":[-9676817.4310999997,3679808.4909999967]},"properties":{"FID":342,"DAM_NAME":"OLD COUNTRY CLUB","LONGITUDE":-86.928330000000003,"LATITUDE":31.36167,"RIVER":"MILL CREEK","YEAR_COMPL":1914,"DAM_HEIGHT":0,"MAX_STORAG":110,"STATE":"AL"}},{"type":"Feature","id":374,"geometry":{"type":"Point","coordinates":[-9759936.3552999999,4095913.4660999998]},"properties":{"FID":374,"DAM_NAME":"FRAZIER DAM","LONGITUDE":-87.674999999999997,"LATITUDE":34.498330000000003,"RIVER":"TR HARRIS CREEK","YEAR_COMPL":1910,"DAM_HEIGHT":0,"MAX_STORAG":120,"STATE":"AL"}},{"type":"Feature","id":379,"geometry":{"type":"Point","coordinates":[-9768285.3170999996,4100642.0168000013]},"properties":{"FID":379,"DAM_NAME":"SLOSH DAM","LONGITUDE":-87.75,"LATITUDE":34.533329999999999,"RIVER":"DUNKIN CREEK","YEAR_COMPL":1920,"DAM_HEIGHT":0,"MAX_STORAG":90,"STATE":"AL"}},{"type":"Feature","id":382,"geometry":{"type":"Point","coordinates":[-9774407.8891000003,4075670.6860999987]},"properties":{"FID":382,"DAM_NAME":"NIX MILL POND DAM","LONGITUDE":-87.805000000000007,"LATITUDE":34.348329999999997,"RIVER":"EDGAR BRANCH","YEAR_COMPL":1800,"DAM_HEIGHT":0,"MAX_STORAG":55,"STATE":"AL"}},{"type":"Feature","id":418,"geometry":{"type":"Point","coordinates":[-9511137.2934000008,3834184.1040000021]},"properties":{"FID":418,"DAM_NAME":"OGLETREE NO 2","LONGITUDE":-85.439999999999998,"LATITUDE":32.538330000000002,"RIVER":"TR-CHEWACLA CREEK","YEAR_COMPL":1916,"DAM_HEIGHT":0,"MAX_STORAG":173,"STATE":"AL"}},{"type":"Feature","id":514,"geometry":{"type":"Point","coordinates":[-9571249.8183999993,3880712.3884999976]},"properties":{"FID":514,"DAM_NAME":"RUSSELL MILLS","LONGITUDE":-85.980000000000004,"LATITUDE":32.890000000000001,"RIVER":"ELKAHATCHEE CREEK","YEAR_COMPL":1920,"DAM_HEIGHT":0,"MAX_STORAG":1300,"STATE":"AL"}},{"type":"Feature","id":525,"geometry":{"type":"Point","coordinates":[-9734332.8724000007,4009572.5077000037]},"properties":{"FID":525,"DAM_NAME":"BOSHELL@S MILL DAM","LONGITUDE":-87.444999999999993,"LATITUDE":33.856670000000001,"RIVER":"LOST CREEK","YEAR_COMPL":1903,"DAM_HEIGHT":0,"MAX_STORAG":100,"STATE":"AL"}},{"type":"Feature","id":526,"geometry":{"type":"Point","coordinates":[-9729323.4953000005,4022985.3486000001]},"properties":{"FID":526,"DAM_NAME":"ODUMS MILL DAM","LONGITUDE":-87.400000000000006,"LATITUDE":33.956670000000003,"RIVER":"BLACKWATER CREEK","YEAR_COMPL":1850,"DAM_HEIGHT":0,"MAX_STORAG":180,"STATE":"AL"}},{"type":"Feature","id":594,"geometry":{"type":"Point","coordinates":[-14961741.2367,8039475.0146000013]},"properties":{"FID":594,"DAM_NAME":"SALMON CREEK","LONGITUDE":-134.4036083,"LATITUDE":58.341850000000001,"RIVER":"SALMON CREEK, GASTINEAU INLET","YEAR_COMPL":1914,"DAM_HEIGHT":170,"MAX_STORAG":18000,"STATE":"AK"}},{"type":"Feature","id":706,"geometry":{"type":"Point","coordinates":[-15063497.147599999,8276214.193599999]},"properties":{"FID":706,"DAM_NAME":"LOWER DEWEY","LONGITUDE":-135.3176972,"LATITUDE":59.440513899999999,"RIVER":"DEWEY CREEK","YEAR_COMPL":1905,"DAM_HEIGHT":28,"MAX_STORAG":650,"STATE":"AK"}},{"type":"Feature","id":819,"geometry":{"type":"Point","coordinates":[-14990282.630199999,7638124.6933000013]},"properties":{"FID":819,"DAM_NAME":"LAKE OSPREY DAM","LONGITUDE":-134.66,"LATITUDE":56.39833333,"RIVER":"UNKNOWN","YEAR_COMPL":1919,"DAM_HEIGHT":8,"MAX_STORAG":1250,"STATE":"AK"}},{"type":"Feature","id":820,"geometry":{"type":"Point","coordinates":[-15062428.792199999,8278532.3445999995]},"properties":{"FID":820,"DAM_NAME":"DEWEY FOREBAY","LONGITUDE":-135.3081,"LATITUDE":59.451099999999997,"RIVER":"DEWEY CREEK","YEAR_COMPL":1905,"DAM_HEIGHT":30,"MAX_STORAG":35,"STATE":"AK"}},{"type":"Feature","id":835,"geometry":{"type":"Point","coordinates":[-17169918.259999998,7739706.9474000037]},"properties":{"FID":835,"DAM_NAME":"ALITAK CANNERY DAM #1","LONGITUDE":-154.24000000000001,"LATITUDE":56.899999999999999,"RIVER":" ","YEAR_COMPL":1917,"DAM_HEIGHT":9,"MAX_STORAG":62,"STATE":"AK"}},{"type":"Feature","id":899,"geometry":{"type":"Point","coordinates":[-9583895.7126000002,3680112.2476999983]},"properties":{"FID":899,"DAM_NAME":"ELBA","LONGITUDE":-86.093599999999995,"LATITUDE":31.364000000000001,"RIVER":"PEA RIVER","YEAR_COMPL":1922,"DAM_HEIGHT":29,"MAX_STORAG":950,"STATE":"AL"}},{"type":"Feature","id":1483,"geometry":{"type":"Point","coordinates":[-9681456.1142999995,3954076.0817999989]},"properties":{"FID":1483,"DAM_NAME":"T. C. I. LAKE","LONGITUDE":-86.969999999999999,"LATITUDE":33.441670000000002,"RIVER":"TR-OPOSSUM CREEK","YEAR_COMPL":1910,"DAM_HEIGHT":0,"MAX_STORAG":80,"STATE":"AL"}},{"type":"Feature","id":1484,"geometry":{"type":"Point","coordinates":[-9683472.7782000005,3971768.0512999967]},"properties":{"FID":1484,"DAM_NAME":"BAYVIEW LAKE","LONGITUDE":-86.988116000000005,"LATITUDE":33.574187000000002,"RIVER":"VILLAGE CREEK","YEAR_COMPL":1910,"DAM_HEIGHT":0,"MAX_STORAG":14200,"STATE":"AL"}},{"type":"Feature","id":1486,"geometry":{"type":"Point","coordinates":[-9661418.6059000008,3972989.7076999992]},"properties":{"FID":1486,"DAM_NAME":"BOYLES GAP LAKE","LONGITUDE":-86.790000000000006,"LATITUDE":33.583329999999997,"RIVER":"TR-FIVE MILE CREEK","YEAR_COMPL":1920,"DAM_HEIGHT":0,"MAX_STORAG":80,"STATE":"AL"}},{"type":"Feature","id":1487,"geometry":{"type":"Point","coordinates":[-9654423.6230999995,3970966.5557999983]},"properties":{"FID":1487,"DAM_NAME":"EAST LAKE PARK","LONGITUDE":-86.727163000000004,"LATITUDE":33.568187999999999,"RIVER":"TR VILLAGE CREEK","YEAR_COMPL":1912,"DAM_HEIGHT":0,"MAX_STORAG":120,"STATE":"AL"}},{"type":"Feature","id":1490,"geometry":{"type":"Point","coordinates":[-9641567.0011999998,3973436.0194000006]},"properties":{"FID":1490,"DAM_NAME":"QUEENSTOWN LAKE NO 2","LONGITUDE":-86.611670000000004,"LATITUDE":33.586669999999998,"RIVER":"STINKING CREEK","YEAR_COMPL":1910,"DAM_HEIGHT":0,"MAX_STORAG":200,"STATE":"AL"}},{"type":"Feature","id":1513,"geometry":{"type":"Point","coordinates":[-9690918.2709999997,3985245.5045000017]},"properties":{"FID":1513,"DAM_NAME":"THORNTON LAKE","LONGITUDE":-87.055000000000007,"LATITUDE":33.674999999999997,"RIVER":"FALLS CREEK","YEAR_COMPL":1920,"DAM_HEIGHT":0,"MAX_STORAG":140,"STATE":"AL"}},{"type":"Feature","id":1521,"geometry":{"type":"Point","coordinates":[-9692217.3695,3934303.6523000002]},"properties":{"FID":1521,"DAM_NAME":"KIMBRELL LAKE","LONGITUDE":-87.066670000000002,"LATITUDE":33.293329999999997,"RIVER":"TR-MILL CREEK","YEAR_COMPL":1920,"DAM_HEIGHT":0,"MAX_STORAG":50,"STATE":"AL"}},{"type":"Feature","id":1668,"geometry":{"type":"Point","coordinates":[-9700194.5241999999,3930531.3377000019]},"properties":{"FID":1668,"DAM_NAME":"HERRING LAKE DAM","LONGITUDE":-87.138329999999996,"LATITUDE":33.265000000000001,"RIVER":"ROCKCASTLE CREEK","YEAR_COMPL":1920,"DAM_HEIGHT":0,"MAX_STORAG":50,"STATE":"AL"}},{"type":"Feature","id":1686,"geometry":{"type":"Point","coordinates":[-9744319.2325999998,3921081.1568000019]},"properties":{"FID":1686,"DAM_NAME":"FOREST LAKE DAM","LONGITUDE":-87.534709000000007,"LATITUDE":33.193989000000002,"RIVER":"TR-CRIBBS MILL CREEK","YEAR_COMPL":1920,"DAM_HEIGHT":0,"MAX_STORAG":90,"STATE":"AL"}},{"type":"Feature","id":1741,"geometry":{"type":"Point","coordinates":[-9626352.9662999995,3823845.3982999995]},"properties":{"FID":1741,"DAM_NAME":"PRATTVILLE LAKE","LONGITUDE":-86.474999999999994,"LATITUDE":32.460000000000001,"RIVER":"AUTAUGA CREEK","YEAR_COMPL":1920,"DAM_HEIGHT":0,"MAX_STORAG":86,"STATE":"AL"}},{"type":"Feature","id":1774,"geometry":{"type":"Point","coordinates":[-9631039.5168999992,3890486.7361000031]},"properties":{"FID":1774,"DAM_NAME":"LAY","LONGITUDE":-86.517099999999999,"LATITUDE":32.963700000000003,"RIVER":"COOSA RIVER","YEAR_COMPL":1914,"DAM_HEIGHT":130,"MAX_STORAG":262800,"STATE":"AL"}},{"type":"Feature","id":2029,"geometry":{"type":"Point","coordinates":[-10251226.374299999,3899507.9389000013]},"properties":{"FID":2029,"DAM_NAME":"LOCK AND DAM NO 6","LONGITUDE":-92.088333329999998,"LATITUDE":33.03166667,"RIVER":"OUACHITA RIVER","YEAR_COMPL":1913,"DAM_HEIGHT":0,"MAX_STORAG":37700,"STATE":"AR"}},{"type":"Feature","id":2030,"geometry":{"type":"Point","coordinates":[-10292971.1833,3935413.9645999968]},"properties":{"FID":2030,"DAM_NAME":"LOCK AND DAM NO 8","LONGITUDE":-92.463333329999998,"LATITUDE":33.301666670000003,"RIVER":"OUACHITA RIVER","YEAR_COMPL":1911,"DAM_HEIGHT":25,"MAX_STORAG":85000,"STATE":"AR"}},{"type":"Feature","id":2059,"geometry":{"type":"Point","coordinates":[-10489759.305600001,4360258.6296000034]},"properties":{"FID":2059,"DAM_NAME":"BELLA VISTA LAKE DAM","LONGITUDE":-94.231111110000001,"LATITUDE":36.43222222,"RIVER":"LITTLE SUGAR CREEK","YEAR_COMPL":1918,"DAM_HEIGHT":14,"MAX_STORAG":183,"STATE":"AR"}},{"type":"Feature","id":2093,"geometry":{"type":"Point","coordinates":[-10435831.1973,4354879.2819000036]},"properties":{"FID":2093,"DAM_NAME":"EUREKA SPRINGS CITY LAKE DAM","LONGITUDE":-93.746666669999996,"LATITUDE":36.393333329999997,"RIVER":"WEST LEATHERWOOD CREEK-TR","YEAR_COMPL":1894,"DAM_HEIGHT":28,"MAX_STORAG":107,"STATE":"AR"}},{"type":"Feature","id":2335,"geometry":{"type":"Point","coordinates":[-10362174.8005,3950296.4438000023]},"properties":{"FID":2335,"DAM_NAME":"HASSICS","LONGITUDE":-93.084999999999994,"LATITUDE":33.41333333,"RIVER":"SMACKOVER CREEK-TR","YEAR_COMPL":1920,"DAM_HEIGHT":11,"MAX_STORAG":125,"STATE":"AR"}},{"type":"Feature","id":2381,"geometry":{"type":"Point","coordinates":[-10359577.346100001,4101543.368900001]},"properties":{"FID":2381,"DAM_NAME":"DILLON DAM","LONGITUDE":-93.061666669999994,"LATITUDE":34.539999999999999,"RIVER":"BULL BAYOU-TR","YEAR_COMPL":1903,"DAM_HEIGHT":44,"MAX_STORAG":858,"STATE":"AR"}},{"type":"Feature","id":2382,"geometry":{"type":"Point","coordinates":[-10360195.7871,4101543.368900001]},"properties":{"FID":2382,"DAM_NAME":"BETHEL DAM","LONGITUDE":-93.067222220000005,"LATITUDE":34.539999999999999,"RIVER":"BULL BAYOU-TR","YEAR_COMPL":1881,"DAM_HEIGHT":36,"MAX_STORAG":194,"STATE":"AR"}},{"type":"Feature","id":2491,"geometry":{"type":"Point","coordinates":[-10371265.8926,4017170.7378999963]},"properties":{"FID":2491,"DAM_NAME":"GURDON POND 1 DAM","LONGITUDE":-93.166666669999998,"LATITUDE":33.91333333,"RIVER":"CANEY CREEK","YEAR_COMPL":1915,"DAM_HEIGHT":17,"MAX_STORAG":312,"STATE":"AR"}},{"type":"Feature","id":2505,"geometry":{"type":"Point","coordinates":[-10262358.3234,3900835.8237999976]},"properties":{"FID":2505,"DAM_NAME":"ARNONAME 56","LONGITUDE":-92.188333330000006,"LATITUDE":33.041666669999998,"RIVER":"KELLY SPRING CREEK-TR-OS","YEAR_COMPL":1918,"DAM_HEIGHT":13,"MAX_STORAG":102,"STATE":"AR"}},{"type":"Feature","id":2662,"geometry":{"type":"Point","coordinates":[-10276860.7795,4101318.1362000033]},"properties":{"FID":2662,"DAM_NAME":"SPRING LAKE DAM","LONGITUDE":-92.318611110000006,"LATITUDE":34.53833333,"RIVER":"CLEAR CREEK","YEAR_COMPL":1915,"DAM_HEIGHT":0,"MAX_STORAG":200,"STATE":"AR"}},{"type":"Feature","id":2759,"geometry":{"type":"Point","coordinates":[-10369132.2687,4209954.8775999993]},"properties":{"FID":2759,"DAM_NAME":"LAKE RUSSELLVILLE DAM","LONGITUDE":-93.147499999999994,"LATITUDE":35.338333329999998,"RIVER":"ILLINOIS BAYOU","YEAR_COMPL":1911,"DAM_HEIGHT":26,"MAX_STORAG":1800,"STATE":"AR"}},{"type":"Feature","id":2840,"geometry":{"type":"Point","coordinates":[-10330077.681,4194272.8219999969]},"properties":{"FID":2840,"DAM_NAME":"FISH LAKE DAM","LONGITUDE":-92.796666669999993,"LATITUDE":35.223333330000003,"RIVER":"PT REMOVE CANAL-OS","YEAR_COMPL":1902,"DAM_HEIGHT":0,"MAX_STORAG":1500,"STATE":"AR"}},{"type":"Feature","id":2872,"geometry":{"type":"Point","coordinates":[-10409083.597200001,4067097.6384000033]},"properties":{"FID":2872,"DAM_NAME":"MILL POND DAM","LONGITUDE":-93.506388889999997,"LATITUDE":34.284722219999999,"RIVER":"BIGSBY BRANCH","YEAR_COMPL":1919,"DAM_HEIGHT":0,"MAX_STORAG":80,"STATE":"AR"}},{"type":"Feature","id":3051,"geometry":{"type":"Point","coordinates":[-10293465.9373,4085338.1557999998]},"properties":{"FID":3051,"DAM_NAME":"FISER LAKE DAM","LONGITUDE":-92.467777780000006,"LATITUDE":34.420000000000002,"RIVER":"LOST CREEK-TR","YEAR_COMPL":1905,"DAM_HEIGHT":0,"MAX_STORAG":63,"STATE":"AR"}},{"type":"Feature","id":3061,"geometry":{"type":"Point","coordinates":[-12430955.509100001,4150021.8532999977]},"properties":{"FID":3061,"DAM_NAME":"FOXBORO LAKE DAM","LONGITUDE":-111.6691733,"LATITUDE":34.897951939999999,"RIVER":"MUNDS CANYON TRIBUTARY","YEAR_COMPL":1905,"DAM_HEIGHT":13,"MAX_STORAG":253,"STATE":"AZ"}},{"type":"Feature","id":3093,"geometry":{"type":"Point","coordinates":[-12514080.745099999,4194554.4486000016]},"properties":{"FID":3093,"DAM_NAME":"STEEL DAM","LONGITUDE":-112.41589999999999,"LATITUDE":35.2254,"RIVER":"JOHNSON CANYON","YEAR_COMPL":1898,"DAM_HEIGHT":46,"MAX_STORAG":97,"STATE":"AZ"}},{"type":"Feature","id":3101,"geometry":{"type":"Point","coordinates":[-12512032.466400001,4197036.2481999993]},"properties":{"FID":3101,"DAM_NAME":"MASONRY #2","LONGITUDE":-112.39749999999999,"LATITUDE":35.243609999999997,"RIVER":"JOHNSON CANYON","YEAR_COMPL":1911,"DAM_HEIGHT":48,"MAX_STORAG":247,"STATE":"AZ"}},{"type":"Feature","id":3103,"geometry":{"type":"Point","coordinates":[-12171271.26,4029473.4236999974]},"properties":{"FID":3103,"DAM_NAME":"CANYON","LONGITUDE":-109.33638999999999,"LATITUDE":34.005000000000003,"RIVER":"WATER CANYON CREEK","YEAR_COMPL":1886,"DAM_HEIGHT":17,"MAX_STORAG":130,"STATE":"AZ"}},{"type":"Feature","id":3105,"geometry":{"type":"Point","coordinates":[-12180825.811900001,4026265.8426000029]},"properties":{"FID":3105,"DAM_NAME":"HOG WALLOW","LONGITUDE":-109.42222,"LATITUDE":33.981110000000001,"RIVER":"LITTLE COLORADO RIVER -TR","YEAR_COMPL":1908,"DAM_HEIGHT":7,"MAX_STORAG":1000,"STATE":"AZ"}},{"type":"Feature","id":3106,"geometry":{"type":"Point","coordinates":[-12179403.148800001,4025110.0455000028]},"properties":{"FID":3106,"DAM_NAME":"POOL CORRAL","LONGITUDE":-109.40944,"LATITUDE":33.972499999999997,"RIVER":"LITTLE COLORADO RIVER - TR","YEAR_COMPL":1908,"DAM_HEIGHT":12,"MAX_STORAG":993,"STATE":"AZ"}},{"type":"Feature","id":3109,"geometry":{"type":"Point","coordinates":[-12554952.8093,3925798.0351999998]},"properties":{"FID":3109,"DAM_NAME":"GILLESPIE","LONGITUDE":-112.78306000000001,"LATITUDE":33.229439999999997,"RIVER":"GILA RIVER","YEAR_COMPL":1921,"DAM_HEIGHT":21,"MAX_STORAG":3600,"STATE":"AZ"}},{"type":"Feature","id":3127,"geometry":{"type":"Point","coordinates":[-12499293.063900001,4194008.0097000003]},"properties":{"FID":3127,"DAM_NAME":"MCLELLAN","LONGITUDE":-112.28306000000001,"LATITUDE":35.22139,"RIVER":"JOHNSON CANYON","YEAR_COMPL":1907,"DAM_HEIGHT":21,"MAX_STORAG":110,"STATE":"AZ"}},{"type":"Feature","id":3132,"geometry":{"type":"Point","coordinates":[-12574309.042399999,4200898.3878000006]},"properties":{"FID":3132,"DAM_NAME":"CANYON MOUTH","LONGITUDE":-112.95694,"LATITUDE":35.271940000000001,"RIVER":"BIG CHINO WASH","YEAR_COMPL":1916,"DAM_HEIGHT":22,"MAX_STORAG":600,"STATE":"AZ"}},{"type":"Feature","id":3156,"geometry":{"type":"Point","coordinates":[-12172013.761,4029026.2685000002]},"properties":{"FID":3156,"DAM_NAME":"ATCHISON","LONGITUDE":-109.34305999999999,"LATITUDE":34.001669999999997,"RIVER":"WATER CANYON CREEK","YEAR_COMPL":1920,"DAM_HEIGHT":8,"MAX_STORAG":205,"STATE":"AZ"}},{"type":"Feature","id":3157,"geometry":{"type":"Point","coordinates":[-12187226.682599999,4110894.9363999963]},"properties":{"FID":3157,"DAM_NAME":"UDALL","LONGITUDE":-109.47972,"LATITUDE":34.609169999999999,"RIVER":"LITTLE COLORADO RIVER","YEAR_COMPL":1910,"DAM_HEIGHT":24,"MAX_STORAG":5000,"STATE":"AZ"}},{"type":"Feature","id":3231,"geometry":{"type":"Point","coordinates":[-10201062.101500001,4267291.1274000034]},"properties":{"FID":3231,"DAM_NAME":"WHITE RIVER L AND D NO. 1","LONGITUDE":-91.637699999999995,"LATITUDE":35.757399999999997,"RIVER":"WHITE RIVER","YEAR_COMPL":1904,"DAM_HEIGHT":28,"MAX_STORAG":12500,"STATE":"AR"}},{"type":"Feature","id":3232,"geometry":{"type":"Point","coordinates":[-10215333.260199999,4265535.3941999972]},"properties":{"FID":3232,"DAM_NAME":"WHITE RIVER LOCK & DAM NO. 2","LONGITUDE":-91.765900000000002,"LATITUDE":35.744599999999998,"RIVER":"WHITE RIVER","YEAR_COMPL":1905,"DAM_HEIGHT":29,"MAX_STORAG":8581,"STATE":"AR"}},{"type":"Feature","id":3233,"geometry":{"type":"Point","coordinates":[-10224750.8891,4279149.7238000035]},"properties":{"FID":3233,"DAM_NAME":"WHITE RIVER LOCK & DAM NO. 3","LONGITUDE":-91.850499999999997,"LATITUDE":35.843800000000002,"RIVER":"WHITE RIVER","YEAR_COMPL":1908,"DAM_HEIGHT":21,"MAX_STORAG":10242,"STATE":"AR"}},{"type":"Feature","id":3235,"geometry":{"type":"Point","coordinates":[-10355124.937100001,4102444.7932000011]},"properties":{"FID":3235,"DAM_NAME":"RICKS ESTATE DAM","LONGITUDE":-93.02167,"LATITUDE":34.546669999999999,"RIVER":" ","YEAR_COMPL":1896,"DAM_HEIGHT":16,"MAX_STORAG":20,"STATE":"AR"}},{"type":"Feature","id":3278,"geometry":{"type":"Point","coordinates":[-12745491.702500001,3871926.3994000033]},"properties":{"FID":3278,"DAM_NAME":"LAGUNA DIVERSION","LONGITUDE":-114.49469999999999,"LATITUDE":32.823700000000002,"RIVER":"COLORADO RIVER","YEAR_COMPL":1908,"DAM_HEIGHT":43,"MAX_STORAG":1600,"STATE":"AZ"}},{"type":"Feature","id":3279,"geometry":{"type":"Point","coordinates":[-12433452.037900001,3963956.2771999985]},"properties":{"FID":3279,"DAM_NAME":"GRANITE REEF DIVERSION","LONGITUDE":-111.69159999999999,"LATITUDE":33.515700000000002,"RIVER":"SALT RIVER","YEAR_COMPL":1907,"DAM_HEIGHT":29,"MAX_STORAG":700,"STATE":"AZ"}},{"type":"Feature","id":3280,"geometry":{"type":"Point","coordinates":[-12374441.5758,3984777.3332000002]},"properties":{"FID":3280,"DAM_NAME":"THEODORE ROOSEVELT","LONGITUDE":-111.1615,"LATITUDE":33.671500000000002,"RIVER":"SALT RIVER","YEAR_COMPL":1911,"DAM_HEIGHT":357,"MAX_STORAG":3432408,"STATE":"AZ"}},{"type":"Feature","id":3309,"geometry":{"type":"Point","coordinates":[-12470866.5187,4172745.0974000022]},"properties":{"FID":3309,"DAM_NAME":"J. D. DAM","LONGITUDE":-112.0277,"LATITUDE":35.065199999999997,"RIVER":"J D DAM WASH TR SYCAMORE CREEK","YEAR_COMPL":1915,"DAM_HEIGHT":21,"MAX_STORAG":70,"STATE":"AZ"}},{"type":"Feature","id":3317,"geometry":{"type":"Point","coordinates":[-12455292.922,4197770.9459000006]},"properties":{"FID":3317,"DAM_NAME":"RAILROAD TANK DAM","LONGITUDE":-111.8878,"LATITUDE":35.249000000000002,"RIVER":"BRANNIGAN PARK","YEAR_COMPL":1900,"DAM_HEIGHT":37,"MAX_STORAG":250,"STATE":"AZ"}},{"type":"Feature","id":3320,"geometry":{"type":"Point","coordinates":[-10189629.5898,4368948.1243000031]},"properties":{"FID":3320,"DAM_NAME":"MAMMOTH SPRINGS DAM 1","LONGITUDE":-91.534999999999997,"LATITUDE":36.494999999999997,"RIVER":"SPRING RIVER","YEAR_COMPL":1885,"DAM_HEIGHT":0,"MAX_STORAG":60,"STATE":"AR"}},{"type":"Feature","id":3330,"geometry":{"type":"Point","coordinates":[-10499778.059800001,4051763.8998000026]},"properties":{"FID":3330,"DAM_NAME":"GILLHAM LAKE DAM","LONGITUDE":-94.321111110000004,"LATITUDE":34.170833330000001,"RIVER":"BELLAH CREEK TRIB","YEAR_COMPL":1900,"DAM_HEIGHT":39,"MAX_STORAG":124,"STATE":"AR"}},{"type":"Feature","id":3345,"geometry":{"type":"Point","coordinates":[-10490563.2795,4100417.2534999996]},"properties":{"FID":3345,"DAM_NAME":"BETHESDA LAKE DAM","LONGITUDE":-94.238333330000003,"LATITUDE":34.53166667,"RIVER":"DALLAS CREEK","YEAR_COMPL":1922,"DAM_HEIGHT":32.600000000000001,"MAX_STORAG":54,"STATE":"AR"}},{"type":"Feature","id":3589,"geometry":{"type":"Point","coordinates":[-12409432.6314,4186477.8047999963]},"properties":{"FID":3589,"DAM_NAME":"WALNUT CANYON","LONGITUDE":-111.47583,"LATITUDE":35.166110000000003,"RIVER":"WALNUT CREEK","YEAR_COMPL":1881,"DAM_HEIGHT":41,"MAX_STORAG":423,"STATE":"AZ"}},{"type":"Feature","id":3609,"geometry":{"type":"Point","coordinates":[-12193442.763,4036749.8813000023]},"properties":{"FID":3609,"DAM_NAME":"SUNNYSIDE","LONGITUDE":-109.53556,"LATITUDE":34.059170000000002,"RIVER":"FISH CREEK","YEAR_COMPL":1912,"DAM_HEIGHT":13.199999999999999,"MAX_STORAG":72,"STATE":"AZ"}},{"type":"Feature","id":3629,"geometry":{"type":"Point","coordinates":[-12171796.688000001,3904820.8255999982]},"properties":{"FID":3629,"DAM_NAME":"LYMAN DAM","LONGITUDE":-109.34111,"LATITUDE":33.071669999999997,"RIVER":"LITTLE COLORADO RIVER","YEAR_COMPL":1912,"DAM_HEIGHT":60,"MAX_STORAG":44500,"STATE":"AZ"}},{"type":"Feature","id":3631,"geometry":{"type":"Point","coordinates":[-12182434.3785,4033763.2448000014]},"properties":{"FID":3631,"DAM_NAME":"RIVER RESERVOIR #3","LONGITUDE":-109.43667000000001,"LATITUDE":34.036940000000001,"RIVER":"LITTLE COLORADO RIVER","YEAR_COMPL":1896,"DAM_HEIGHT":58,"MAX_STORAG":3195,"STATE":"AZ"}},{"type":"Feature","id":3632,"geometry":{"type":"Point","coordinates":[-12155469.4583,4036823.7846999988]},"properties":{"FID":3632,"DAM_NAME":"NELSON","LONGITUDE":-109.19444,"LATITUDE":34.059719999999999,"RIVER":"NUTRIOSO CREEK","YEAR_COMPL":1890,"DAM_HEIGHT":34,"MAX_STORAG":900,"STATE":"AZ"}},{"type":"Feature","id":3633,"geometry":{"type":"Point","coordinates":[-12180486.2874,4077282.0309000015]},"properties":{"FID":3633,"DAM_NAME":"COLTER","LONGITUDE":-109.41916999999999,"LATITUDE":34.360280000000003,"RIVER":"LITTLE COLORADO RIVER","YEAR_COMPL":1908,"DAM_HEIGHT":19,"MAX_STORAG":732,"STATE":"AZ"}},{"type":"Feature","id":3634,"geometry":{"type":"Point","coordinates":[-12488996.011,4195673.3018999994]},"properties":{"FID":3634,"DAM_NAME":"CITY","LONGITUDE":-112.19056,"LATITUDE":35.233609999999999,"RIVER":"CATARACT CREEK - TR","YEAR_COMPL":1902,"DAM_HEIGHT":46.5,"MAX_STORAG":160,"STATE":"AZ"}},{"type":"Feature","id":3637,"geometry":{"type":"Point","coordinates":[-12245267.551899999,4077918.5416999981]},"properties":{"FID":3637,"DAM_NAME":"DAGGS","LONGITUDE":-110.00111,"LATITUDE":34.365000000000002,"RIVER":"SILVER CREEK-ROCKY ARROYO","YEAR_COMPL":1919,"DAM_HEIGHT":57,"MAX_STORAG":13750,"STATE":"AZ"}},{"type":"Feature","id":3639,"geometry":{"type":"Point","coordinates":[-12421151.6349,4179037.7675999999]},"properties":{"FID":3639,"DAM_NAME":"LOWER LAKE MARY","LONGITUDE":-111.58110360000001,"LATITUDE":35.111454999999999,"RIVER":"WALNUT CANYON","YEAR_COMPL":1907,"DAM_HEIGHT":33,"MAX_STORAG":22400,"STATE":"AZ"}},{"type":"Feature","id":3642,"geometry":{"type":"Point","coordinates":[-12514011.727,4109090.804399997]},"properties":{"FID":3642,"DAM_NAME":"GRANITE CREEK","LONGITUDE":-112.41528,"LATITUDE":34.595829999999999,"RIVER":"GRANITE CREEK","YEAR_COMPL":1920,"DAM_HEIGHT":81,"MAX_STORAG":4900,"STATE":"AZ"}},{"type":"Feature","id":3645,"geometry":{"type":"Point","coordinates":[-12242361,4049409.127700001]},"properties":{"FID":3645,"DAM_NAME":"LAKESIDE","LONGITUDE":-109.97499999999999,"LATITUDE":34.153329999999997,"RIVER":"SHOW LOW CREEK","YEAR_COMPL":1904,"DAM_HEIGHT":21,"MAX_STORAG":2226,"STATE":"AZ"}},{"type":"Feature","id":3649,"geometry":{"type":"Point","coordinates":[-12142977.184999999,4005737.9849999994]},"properties":{"FID":3649,"DAM_NAME":"LUNA","LONGITUDE":-109.08222000000001,"LATITUDE":33.828060000000001,"RIVER":"SAN FRANCISCO RIVER","YEAR_COMPL":1911,"DAM_HEIGHT":27,"MAX_STORAG":1800,"STATE":"AZ"}},{"type":"Feature","id":3650,"geometry":{"type":"Point","coordinates":[-12488531.808699999,4196961.2818000019]},"properties":{"FID":3650,"DAM_NAME":"SANTA FE","LONGITUDE":-112.18639,"LATITUDE":35.24306,"RIVER":"CATARACT CREEK","YEAR_COMPL":1892,"DAM_HEIGHT":42,"MAX_STORAG":260,"STATE":"AZ"}},{"type":"Feature","id":3652,"geometry":{"type":"Point","coordinates":[-12189360.677200001,4021046.2199999988]},"properties":{"FID":3652,"DAM_NAME":"LEE VALLEY","LONGITUDE":-109.49889,"LATITUDE":33.942219999999999,"RIVER":"RUDD CREEK - TR","YEAR_COMPL":1899,"DAM_HEIGHT":20,"MAX_STORAG":640,"STATE":"AZ"}},{"type":"Feature","id":3653,"geometry":{"type":"Point","coordinates":[-12174363.715399999,4033427.4147000015]},"properties":{"FID":3653,"DAM_NAME":"MEXICAN HAY LAKE","LONGITUDE":-109.36417,"LATITUDE":34.034439999999996,"RIVER":"JOE BACA DRAW - TR","YEAR_COMPL":1908,"DAM_HEIGHT":11,"MAX_STORAG":821,"STATE":"AZ"}},{"type":"Feature","id":3661,"geometry":{"type":"Point","coordinates":[-12239918.6504,4045897.3827999979]},"properties":{"FID":3661,"DAM_NAME":"WOODLAND","LONGITUDE":-109.95305999999999,"LATITUDE":34.127220000000001,"RIVER":"WALNUT CREEK","YEAR_COMPL":1914,"DAM_HEIGHT":18,"MAX_STORAG":155,"STATE":"AZ"}},{"type":"Feature","id":3668,"geometry":{"type":"Point","coordinates":[-12228230.103799999,3879349.6661000028]},"properties":{"FID":3668,"DAM_NAME":"ROGERS RESERVOIR","LONGITUDE":-109.84806,"LATITUDE":32.879719999999999,"RIVER":"COTTONWOOD CREEK - OS","YEAR_COMPL":1894,"DAM_HEIGHT":24,"MAX_STORAG":470,"STATE":"AZ"}},{"type":"Feature","id":3669,"geometry":{"type":"Point","coordinates":[-12218396.140000001,3860219.2942000031]},"properties":{"FID":3669,"DAM_NAME":"LEBANON RESERVOIR #1 (UPPER)","LONGITUDE":-109.75972,"LATITUDE":32.735280000000003,"RIVER":"MARIJILDA WASH - OS","YEAR_COMPL":1910,"DAM_HEIGHT":40,"MAX_STORAG":147,"STATE":"AZ"}},{"type":"Feature","id":3670,"geometry":{"type":"Point","coordinates":[-12219911.1983,3866507.007600002]},"properties":{"FID":3670,"DAM_NAME":"HARALSON","LONGITUDE":-109.77333,"LATITUDE":32.782780000000002,"RIVER":"GILA RIVER - TR","YEAR_COMPL":1919,"DAM_HEIGHT":29,"MAX_STORAG":89,"STATE":"AZ"}},{"type":"Feature","id":3684,"geometry":{"type":"Point","coordinates":[-13414421.6547,4614576.0759999976]},"properties":{"FID":3684,"DAM_NAME":"EMERY","LONGITUDE":-120.5038,"LATITUDE":38.248399999999997,"RIVER":"MCKINNEYS CREEK","YEAR_COMPL":1850,"DAM_HEIGHT":53,"MAX_STORAG":0,"STATE":"CA"}},{"type":"Feature","id":3686,"geometry":{"type":"Point","coordinates":[-13443420.381999999,4583735.3364000022]},"properties":{"FID":3686,"DAM_NAME":"SALT SPRINGS VALLEY","LONGITUDE":-120.76430000000001,"LATITUDE":38.030500000000004,"RIVER":"ROCK CREEK","YEAR_COMPL":1882,"DAM_HEIGHT":47,"MAX_STORAG":0,"STATE":"CA"}},{"type":"Feature","id":3700,"geometry":{"type":"Point","coordinates":[-13347240.342,4665703.9654999971]},"properties":{"FID":3700,"DAM_NAME":"TAMARAC LAKE","LONGITUDE":-119.9003,"LATITUDE":38.608199999999997,"RIVER":"TR PLEASANT VY CR","YEAR_COMPL":1905,"DAM_HEIGHT":21,"MAX_STORAG":0,"STATE":"CA"}},{"type":"Feature","id":3701,"geometry":{"type":"Point","coordinates":[-13344702.2576,4665874.9139999971]},"properties":{"FID":3701,"DAM_NAME":"UPPER SUNSET LAKE","LONGITUDE":-119.8775,"LATITUDE":38.609400000000001,"RIVER":"U PLEASANT VY CR","YEAR_COMPL":1904,"DAM_HEIGHT":22,"MAX_STORAG":0,"STATE":"CA"}},{"type":"Feature","id":3704,"geometry":{"type":"Point","coordinates":[-13286003.4901,4601175.4355999976]},"properties":{"FID":3704,"DAM_NAME":"UPPER TWIN LAKE","LONGITUDE":-119.3502,"LATITUDE":38.153799999999997,"RIVER":"ROBINSON CREEK","YEAR_COMPL":1905,"DAM_HEIGHT":14,"MAX_STORAG":0,"STATE":"CA"}},{"type":"Feature","id":3705,"geometry":{"type":"Point","coordinates":[-13283320.690299999,4603171.6790999994]},"properties":{"FID":3705,"DAM_NAME":"LOWER TWIN LAKE","LONGITUDE":-119.3261,"LATITUDE":38.167900000000003,"RIVER":"ROBINSON CREEK","YEAR_COMPL":1888,"DAM_HEIGHT":16,"MAX_STORAG":0,"STATE":"CA"}},{"type":"Feature","id":3706,"geometry":{"type":"Point","coordinates":[-13300040.877900001,4627199.3759000003]},"properties":{"FID":3706,"DAM_NAME":"BLACK RESERVOIR","LONGITUDE":-119.47629999999999,"LATITUDE":38.337400000000002,"RIVER":"BLACK CREEK","YEAR_COMPL":1905,"DAM_HEIGHT":18,"MAX_STORAG":0,"STATE":"CA"}},{"type":"Feature","id":3708,"geometry":{"type":"Point","coordinates":[-13305161.5744,4624148.5082999989]},"properties":{"FID":3708,"DAM_NAME":"POORE LAKE RESERVOIR","LONGITUDE":-119.5223,"LATITUDE":38.315899999999999,"RIVER":"POORE CREEK","YEAR_COMPL":1900,"DAM_HEIGHT":23,"MAX_STORAG":0,"STATE":"CA"}},{"type":"Feature","id":3712,"geometry":{"type":"Point","coordinates":[-13385534.2468,4573508.4378999993]},"properties":{"FID":3712,"DAM_NAME":"TUOLUMNE LOG POND","LONGITUDE":-120.2443,"LATITUDE":37.958100000000002,"RIVER":"TURN BACK CREEK","YEAR_COMPL":1912,"DAM_HEIGHT":22,"MAX_STORAG":0,"STATE":"CA"}},{"type":"Feature","id":3714,"geometry":{"type":"Point","coordinates":[-13468634.2467,4585728.2142999992]},"properties":{"FID":3714,"DAM_NAME":"GILMORE","LONGITUDE":-120.99079999999999,"LATITUDE":38.044600000000003,"RIVER":"TR MORMON SLOUGH","YEAR_COMPL":1918,"DAM_HEIGHT":28,"MAX_STORAG":0,"STATE":"CA"}},{"type":"Feature","id":3717,"geometry":{"type":"Point","coordinates":[-13606314.1929,4499424.2092000023]},"properties":{"FID":3717,"DAM_NAME":"BEAR GULCH","LONGITUDE":-122.2276,"LATITUDE":37.4315,"RIVER":"TR SAN FRAN BAY","YEAR_COMPL":1896,"DAM_HEIGHT":61,"MAX_STORAG":0,"STATE":"CA"}},{"type":"Feature","id":3718,"geometry":{"type":"Point","coordinates":[-13038762.901000001,3901398.0067000017]},"properties":{"FID":3718,"DAM_NAME":"Lake Hodges","LONGITUDE":-117.1292,"LATITUDE":33.045900000000003,"RIVER":"SAN DIEGUITO RIVER","YEAR_COMPL":1918,"DAM_HEIGHT":131,"MAX_STORAG":0,"STATE":"CA"}},{"type":"Feature","id":3723,"geometry":{"type":"Point","coordinates":[-13628166.208900001,4502592.9057999998]},"properties":{"FID":3723,"DAM_NAME":"JOHNSTON","LONGITUDE":-122.4239,"LATITUDE":37.454099999999997,"RIVER":"ARROYO LEON","YEAR_COMPL":1919,"DAM_HEIGHT":31,"MAX_STORAG":0,"STATE":"CA"}},{"type":"Feature","id":3724,"geometry":{"type":"Point","coordinates":[-13610199.243099999,4504444.0918999985]},"properties":{"FID":3724,"DAM_NAME":"EMERALD LAKE 1 LOWER","LONGITUDE":-122.2625,"LATITUDE":37.467300000000002,"RIVER":"TR SAN FRAN BAY","YEAR_COMPL":1885,"DAM_HEIGHT":57,"MAX_STORAG":0,"STATE":"CA"}},{"type":"Feature","id":3725,"geometry":{"type":"Point","coordinates":[-13607427.387800001,4496046.2547999993]},"properties":{"FID":3725,"DAM_NAME":"SEARSVILLE","LONGITUDE":-122.2376,"LATITUDE":37.407400000000003,"RIVER":"CORTE MADERA CR","YEAR_COMPL":1890,"DAM_HEIGHT":68,"MAX_STORAG":0,"STATE":"CA"}},{"type":"Feature","id":3727,"geometry":{"type":"Point","coordinates":[-13600369.732099999,4498288.7589000016]},"properties":{"FID":3727,"DAM_NAME":"LAGUNITA","LONGITUDE":-122.1742,"LATITUDE":37.423400000000001,"RIVER":"UNNAMED TRIBUTARY TO SAN FRANCISCO BAY","YEAR_COMPL":1900,"DAM_HEIGHT":16,"MAX_STORAG":0,"STATE":"CA"}},{"type":"Feature","id":3728,"geometry":{"type":"Point","coordinates":[-13622589.102400001,4518071.5895000026]},"properties":{"FID":3728,"DAM_NAME":"Crocker","LONGITUDE":-122.3738,"LATITUDE":37.564399999999999,"RIVER":"SANCHEZ CREEK","YEAR_COMPL":1890,"DAM_HEIGHT":45,"MAX_STORAG":0,"STATE":"CA"}},{"type":"Feature","id":3729,"geometry":{"type":"Point","coordinates":[-13623167.9638,4518928.2863000035]},"properties":{"FID":3729,"DAM_NAME":"Spencer Lake","LONGITUDE":-122.379,"LATITUDE":37.570500000000003,"RIVER":"TR S FRANCISCO BAY","YEAR_COMPL":1876,"DAM_HEIGHT":87,"MAX_STORAG":0,"STATE":"CA"}},{"type":"Feature","id":3731,"geometry":{"type":"Point","coordinates":[-13586811.018100001,4469970.2484000027]},"properties":{"FID":3731,"DAM_NAME":"LAKE RANCH","LONGITUDE":-122.05240000000001,"LATITUDE":37.2211,"RIVER":"BEARDSLEY CREEK","YEAR_COMPL":1877,"DAM_HEIGHT":38,"MAX_STORAG":0,"STATE":"CA"}},{"type":"Feature","id":3732,"geometry":{"type":"Point","coordinates":[-13582603.1413,4465525.7150000036]},"properties":{"FID":3732,"DAM_NAME":"LOWER HOWELL","LONGITUDE":-122.0146,"LATITUDE":37.189300000000003,"RIVER":"RUNDELL CREEK","YEAR_COMPL":1877,"DAM_HEIGHT":39,"MAX_STORAG":0,"STATE":"CA"}},{"type":"Feature","id":3733,"geometry":{"type":"Point","coordinates":[-13582758.988600001,4465553.6621999964]},"properties":{"FID":3733,"DAM_NAME":"UPPER HOWELL","LONGITUDE":-122.01600000000001,"LATITUDE":37.189500000000002,"RIVER":"RUNDELL CREEK","YEAR_COMPL":1878,"DAM_HEIGHT":36,"MAX_STORAG":0,"STATE":"CA"}},{"type":"Feature","id":3734,"geometry":{"type":"Point","coordinates":[-13570602.9002,4456013.9957000017]},"properties":{"FID":3734,"DAM_NAME":"WILLIAMS","LONGITUDE":-121.9068,"LATITUDE":37.121200000000002,"RIVER":"LOS GATOS CREEK","YEAR_COMPL":1895,"DAM_HEIGHT":69,"MAX_STORAG":0,"STATE":"CA"}},{"type":"Feature","id":3743,"geometry":{"type":"Point","coordinates":[-13604622.136599999,4455343.8891000003]},"properties":{"FID":3743,"DAM_NAME":"MILL CREEK","LONGITUDE":-122.2124,"LATITUDE":37.116399999999999,"RIVER":"MILL CREEK","YEAR_COMPL":1889,"DAM_HEIGHT":76,"MAX_STORAG":0,"STATE":"CA"}},{"type":"Feature","id":3744,"geometry":{"type":"Point","coordinates":[-13574398.8949,4382374.545599997]},"properties":{"FID":3744,"DAM_NAME":"FOREST LAKE","LONGITUDE":-121.9409,"LATITUDE":36.591900000000003,"RIVER":"OFFSTREAM","YEAR_COMPL":1892,"DAM_HEIGHT":65,"MAX_STORAG":0,"STATE":"CA"}},{"type":"Feature","id":3745,"geometry":{"type":"Point","coordinates":[-13571604.775699999,4385189.439199999]},"properties":{"FID":3745,"DAM_NAME":"PACIFIC GROVE","LONGITUDE":-121.9158,"LATITUDE":36.612200000000001,"RIVER":"TR PACIFIC OCEAN","YEAR_COMPL":1882,"DAM_HEIGHT":32,"MAX_STORAG":0,"STATE":"CA"}},{"type":"Feature","id":3757,"geometry":{"type":"Point","coordinates":[-13389118.7344,4460356.7577000037]},"properties":{"FID":3757,"DAM_NAME":"SIERRA VISTA","LONGITUDE":-120.2765,"LATITUDE":37.152299999999997,"RIVER":"CHOWCHILLA RV","YEAR_COMPL":1872,"DAM_HEIGHT":12,"MAX_STORAG":0,"STATE":"CA"}},{"type":"Feature","id":3761,"geometry":{"type":"Point","coordinates":[-13246496.2028,4402177.7317000031]},"properties":{"FID":3761,"DAM_NAME":"SEQUOIA LAKE","LONGITUDE":-118.9953,"LATITUDE":36.7346,"RIVER":"MILL FLAT CR","YEAR_COMPL":1888,"DAM_HEIGHT":51,"MAX_STORAG":0,"STATE":"CA"}},{"type":"Feature","id":3762,"geometry":{"type":"Point","coordinates":[-13357626.4505,4364199.558799997]},"properties":{"FID":3762,"DAM_NAME":"STINSON WEIR","LONGITUDE":-119.9936,"LATITUDE":36.460700000000003,"RIVER":"TR KINGS RIVER","YEAR_COMPL":1910,"DAM_HEIGHT":14,"MAX_STORAG":0,"STATE":"CA"}},{"type":"Feature","id":3766,"geometry":{"type":"Point","coordinates":[-13342509.263599999,4333543.6313999966]},"properties":{"FID":3766,"DAM_NAME":"EMPIRE WEIR NO 1","LONGITUDE":-119.8578,"LATITUDE":36.238900000000001,"RIVER":"SFK KINGS RIVER","YEAR_COMPL":1906,"DAM_HEIGHT":18,"MAX_STORAG":0,"STATE":"CA"}},{"type":"Feature","id":3768,"geometry":{"type":"Point","coordinates":[-13321247.240899999,4358581.5214999989]},"properties":{"FID":3768,"DAM_NAME":"LAST CHANCE WEIR","LONGITUDE":-119.66679999999999,"LATITUDE":36.420099999999998,"RIVER":"KINGS RIVER","YEAR_COMPL":1919,"DAM_HEIGHT":24,"MAX_STORAG":0,"STATE":"CA"}},{"type":"Feature","id":3769,"geometry":{"type":"Point","coordinates":[-13273235.1445,4189554.3805000037]},"properties":{"FID":3769,"DAM_NAME":"BUENA VISTA","LONGITUDE":-119.2355,"LATITUDE":35.188699999999997,"RIVER":"OFFSTREAM","YEAR_COMPL":1890,"DAM_HEIGHT":20,"MAX_STORAG":0,"STATE":"CA"}},{"type":"Feature","id":3775,"geometry":{"type":"Point","coordinates":[-13432611.259500001,4227677.4265000001]},"properties":{"FID":3775,"DAM_NAME":"ATASCADERO PARK","LONGITUDE":-120.66719999999999,"LATITUDE":35.4681,"RIVER":"TR ATASCADERO CR","YEAR_COMPL":1918,"DAM_HEIGHT":18,"MAX_STORAG":0,"STATE":"CA"}},{"type":"Feature","id":3795,"geometry":{"type":"Point","coordinates":[-13624882.2839,4952376.0675000027]},"properties":{"FID":3795,"DAM_NAME":"ANDERSON COTTONWOOD","LONGITUDE":-122.3944,"LATITUDE":40.592199999999998,"RIVER":"SACRAMENTO REVER","YEAR_COMPL":1917,"DAM_HEIGHT":24,"MAX_STORAG":0,"STATE":"CA"}},{"type":"Feature","id":3798,"geometry":{"type":"Point","coordinates":[-13437130.830800001,4684739.560999997]},"properties":{"FID":3798,"DAM_NAME":"Blakely","LONGITUDE":-120.70780000000001,"LATITUDE":38.741700000000002,"RIVER":"TR SFK AMERICAN R","YEAR_COMPL":1875,"DAM_HEIGHT":19,"MAX_STORAG":0,"STATE":"CA"}},{"type":"Feature","id":3801,"geometry":{"type":"Point","coordinates":[-13428214.139600001,5097944.2471000031]},"properties":{"FID":3801,"DAM_NAME":"BIG SAGE","LONGITUDE":-120.6277,"LATITUDE":41.577800000000003,"RIVER":"RATTLESNAKE CR","YEAR_COMPL":1921,"DAM_HEIGHT":49,"MAX_STORAG":0,"STATE":"CA"}},{"type":"Feature","id":3802,"geometry":{"type":"Point","coordinates":[-12978327.5495,3894056.3370999992]},"properties":{"FID":3802,"DAM_NAME":"CUYAMACA","LONGITUDE":-116.58629999999999,"LATITUDE":32.990600000000001,"RIVER":"BOULDER CREEK","YEAR_COMPL":1887,"DAM_HEIGHT":40,"MAX_STORAG":0,"STATE":"CA"}},{"type":"Feature","id":3805,"geometry":{"type":"Point","coordinates":[-13148112.036800001,4102367.757100001]},"properties":{"FID":3805,"DAM_NAME":"HAROLD RESERVOIR","LONGITUDE":-118.11150000000001,"LATITUDE":34.546100000000003,"RIVER":"TR ANTELOPE VAL","YEAR_COMPL":1891,"DAM_HEIGHT":30,"MAX_STORAG":0,"STATE":"CA"}},{"type":"Feature","id":3806,"geometry":{"type":"Point","coordinates":[-13399493.710900001,4511164.4003999978]},"properties":{"FID":3806,"DAM_NAME":"CROCKER DIVERSION","LONGITUDE":-120.36969999999999,"LATITUDE":37.5152,"RIVER":"MERCED RIVER","YEAR_COMPL":1910,"DAM_HEIGHT":22,"MAX_STORAG":0,"STATE":"CA"}},{"type":"Feature","id":3809,"geometry":{"type":"Point","coordinates":[-13407241.547499999,4491562.6828000024]},"properties":{"FID":3809,"DAM_NAME":"YOSEMITE, LAKE","LONGITUDE":-120.4393,"LATITUDE":37.375399999999999,"RIVER":"TR MERCED RV","YEAR_COMPL":1888,"DAM_HEIGHT":53,"MAX_STORAG":0,"STATE":"CA"}},{"type":"Feature","id":3811,"geometry":{"type":"Point","coordinates":[-13434114.0726,4531787.1713000014]},"properties":{"FID":3811,"DAM_NAME":"MODESTO RES","LONGITUDE":-120.6807,"LATITUDE":37.661999999999999,"RIVER":"TR TUOLUMNE RV","YEAR_COMPL":1911,"DAM_HEIGHT":36,"MAX_STORAG":0,"STATE":"CA"}},{"type":"Feature","id":3816,"geometry":{"type":"Point","coordinates":[-13418707.4551,4782113.6523000002]},"properties":{"FID":3816,"DAM_NAME":"FRENCH LAKE","LONGITUDE":-120.5423,"LATITUDE":39.420699999999997,"RIVER":"CANYON CREEK","YEAR_COMPL":1859,"DAM_HEIGHT":95,"MAX_STORAG":13940,"STATE":"CA"}},{"type":"Feature","id":3820,"geometry":{"type":"Point","coordinates":[-13425386.624499999,4785644.7748000026]},"properties":{"FID":3820,"DAM_NAME":"Sawmill Lake","LONGITUDE":-120.6023,"LATITUDE":39.4452,"RIVER":"CANYON CREEK","YEAR_COMPL":1910,"DAM_HEIGHT":60,"MAX_STORAG":3030,"STATE":"CA"}},{"type":"Feature","id":3821,"geometry":{"type":"Point","coordinates":[-13016298.627799999,3843572.3742000014]},"properties":{"FID":3821,"DAM_NAME":"SAVAGE","LONGITUDE":-116.92740000000001,"LATITUDE":32.609400000000001,"RIVER":"OTAY RIVER","YEAR_COMPL":1919,"DAM_HEIGHT":149,"MAX_STORAG":0,"STATE":"CA"}},{"type":"Feature","id":3822,"geometry":{"type":"Point","coordinates":[-13425464.5481,4785587.1138999984]},"properties":{"FID":3822,"DAM_NAME":"SAWMILL SPILLWAY","LONGITUDE":-120.60299999999999,"LATITUDE":39.444800000000001,"RIVER":"CANYON CREEK","YEAR_COMPL":1910,"DAM_HEIGHT":9,"MAX_STORAG":3030,"STATE":"CA"}},{"type":"Feature","id":3832,"geometry":{"type":"Point","coordinates":[-13428503.5702,4560132.6453000009]},"properties":{"FID":3832,"DAM_NAME":"GOODWIN","LONGITUDE":-120.63030000000001,"LATITUDE":37.863300000000002,"RIVER":"STANISLAUS RV","YEAR_COMPL":1912,"DAM_HEIGHT":101,"MAX_STORAG":0,"STATE":"CA"}},{"type":"Feature","id":3833,"geometry":{"type":"Point","coordinates":[-13443542.8334,4553761.2163999975]},"properties":{"FID":3833,"DAM_NAME":"RODDEN LAKE","LONGITUDE":-120.7654,"LATITUDE":37.818100000000001,"RIVER":"LESNINI CREEK","YEAR_COMPL":1916,"DAM_HEIGHT":40,"MAX_STORAG":0,"STATE":"CA"}},{"type":"Feature","id":3847,"geometry":{"type":"Point","coordinates":[-13455743.4496,4560315.952200003]},"properties":{"FID":3847,"DAM_NAME":"WOODWARD","LONGITUDE":-120.875,"LATITUDE":37.864600000000003,"RIVER":"SIMMONS CREEK","YEAR_COMPL":1918,"DAM_HEIGHT":65,"MAX_STORAG":0,"STATE":"CA"}},{"type":"Feature","id":3849,"geometry":{"type":"Point","coordinates":[-13407809.276900001,4533207.5380000025]},"properties":{"FID":3849,"DAM_NAME":"La Grange","LONGITUDE":-120.4444,"LATITUDE":37.6721,"RIVER":"TUOLUMNE RIVER","YEAR_COMPL":1893,"DAM_HEIGHT":131,"MAX_STORAG":500,"STATE":"CA"}},{"type":"Feature","id":3850,"geometry":{"type":"Point","coordinates":[-13424518.3325,4524716.3396999985]},"properties":{"FID":3850,"DAM_NAME":"TURLOCK LAKE","LONGITUDE":-120.5945,"LATITUDE":37.611699999999999,"RIVER":"TR TUOLUMNE RV","YEAR_COMPL":1915,"DAM_HEIGHT":36,"MAX_STORAG":0,"STATE":"CA"}},{"type":"Feature","id":3851,"geometry":{"type":"Point","coordinates":[-13411605.271499999,4528764.2619000003]},"properties":{"FID":3851,"DAM_NAME":"DAWSON LAKE","LONGITUDE":-120.4785,"LATITUDE":37.640500000000003,"RIVER":"TR TUOLUMNE RV","YEAR_COMPL":1896,"DAM_HEIGHT":22,"MAX_STORAG":0,"STATE":"CA"}},{"type":"Feature","id":3868,"geometry":{"type":"Point","coordinates":[-13534713.496399999,4839036.9200000018]},"properties":{"FID":3868,"DAM_NAME":"Magalia","LONGITUDE":-121.5844,"LATITUDE":39.814599999999999,"RIVER":"LITTLE BUTTE CR","YEAR_COMPL":1918,"DAM_HEIGHT":103,"MAX_STORAG":0,"STATE":"CA"}},{"type":"Feature","id":3877,"geometry":{"type":"Point","coordinates":[-13070644.803199999,4014738.6124000028]},"properties":{"FID":3877,"DAM_NAME":"MOCKINGBIRD CANYON","LONGITUDE":-117.4156,"LATITUDE":33.895200000000003,"RIVER":"MOCKINGBIRD CAN","YEAR_COMPL":1914,"DAM_HEIGHT":74,"MAX_STORAG":0,"STATE":"CA"}},{"type":"Feature","id":3878,"geometry":{"type":"Point","coordinates":[-13413375.251400001,4625524.8342000023]},"properties":{"FID":3878,"DAM_NAME":"REDHAWK LAKE","LONGITUDE":-120.4944,"LATITUDE":38.325600000000001,"RIVER":"NFK CALAVERAS RIV","YEAR_COMPL":1882,"DAM_HEIGHT":33,"MAX_STORAG":0,"STATE":"CA"}},{"type":"Feature","id":3893,"geometry":{"type":"Point","coordinates":[-13815605.967500001,4935736.8263000026]},"properties":{"FID":3893,"DAM_NAME":"Scotia Log Pond","LONGITUDE":-124.10769999999999,"LATITUDE":40.4786,"RIVER":"TR EEL RIVER","YEAR_COMPL":1910,"DAM_HEIGHT":24,"MAX_STORAG":0,"STATE":"CA"}},{"type":"Feature","id":3894,"geometry":{"type":"Point","coordinates":[-13632563.3288,4943027.6689999998]},"properties":{"FID":3894,"DAM_NAME":"GEORGE REESE RESERVOIR","LONGITUDE":-122.46339999999999,"LATITUDE":40.528399999999998,"RIVER":"TR TADPOLE CR","YEAR_COMPL":1876,"DAM_HEIGHT":29,"MAX_STORAG":0,"STATE":"CA"}},{"type":"Feature","id":3895,"geometry":{"type":"Point","coordinates":[-13406896.4571,4925278.4996000007]},"properties":{"FID":3895,"DAM_NAME":"WARD LAKE","LONGITUDE":-120.4362,"LATITUDE":40.4071,"RIVER":"TR SUSAN RIVER","YEAR_COMPL":1889,"DAM_HEIGHT":23,"MAX_STORAG":0,"STATE":"CA"}},{"type":"Feature","id":3896,"geometry":{"type":"Point","coordinates":[-13431876.550799999,4941123.9148000032]},"properties":{"FID":3896,"DAM_NAME":"ROUND VALLEY","LONGITUDE":-120.6606,"LATITUDE":40.5154,"RIVER":"ROUND VAL CR","YEAR_COMPL":1892,"DAM_HEIGHT":45,"MAX_STORAG":0,"STATE":"CA"}},{"type":"Feature","id":3897,"geometry":{"type":"Point","coordinates":[-13373700.9849,5007593.3307000026]},"properties":{"FID":3897,"DAM_NAME":"RED ROCK NO 1","LONGITUDE":-120.13800000000001,"LATITUDE":40.967799999999997,"RIVER":"RED ROCK CREEK","YEAR_COMPL":1893,"DAM_HEIGHT":63,"MAX_STORAG":0,"STATE":"CA"}},{"type":"Feature","id":3900,"geometry":{"type":"Point","coordinates":[-13459884.534699999,4929548.248800002]},"properties":{"FID":3900,"DAM_NAME":"HOG FLAT","LONGITUDE":-120.9122,"LATITUDE":40.436300000000003,"RIVER":"TR SUSAN RIVER","YEAR_COMPL":1891,"DAM_HEIGHT":15,"MAX_STORAG":0,"STATE":"CA"}},{"type":"Feature","id":3901,"geometry":{"type":"Point","coordinates":[-13414009.772500001,4920674.5111000016]},"properties":{"FID":3901,"DAM_NAME":"LEAVITT, LAKE","LONGITUDE":-120.5001,"LATITUDE":40.375599999999999,"RIVER":"TR SUSAN RIVER","YEAR_COMPL":1891,"DAM_HEIGHT":17,"MAX_STORAG":0,"STATE":"CA"}},{"type":"Feature","id":3902,"geometry":{"type":"Point","coordinates":[-13463324.307,4932093.4331]},"properties":{"FID":3902,"DAM_NAME":"MCCOY FLAT","LONGITUDE":-120.9431,"LATITUDE":40.453699999999998,"RIVER":"SUSAN RIVER","YEAR_COMPL":1891,"DAM_HEIGHT":21,"MAX_STORAG":0,"STATE":"CA"}},{"type":"Feature","id":3903,"geometry":{"type":"Point","coordinates":[-13368880.851,4990536.1458000019]},"properties":{"FID":3903,"DAM_NAME":"BUCKHORN","LONGITUDE":-120.0947,"LATITUDE":40.851999999999997,"RIVER":"BUCKHORN CREEK","YEAR_COMPL":1904,"DAM_HEIGHT":35,"MAX_STORAG":0,"STATE":"CA"}},{"type":"Feature","id":3906,"geometry":{"type":"Point","coordinates":[-12974052.881000001,3853699.4978]},"properties":{"FID":3906,"DAM_NAME":"MORENA","LONGITUDE":-116.5479,"LATITUDE":32.686,"RIVER":"COTTONWOOD CR","YEAR_COMPL":1912,"DAM_HEIGHT":181,"MAX_STORAG":0,"STATE":"CA"}},{"type":"Feature","id":3907,"geometry":{"type":"Point","coordinates":[-13401653.3091,4965343.7757000029]},"properties":{"FID":3907,"DAM_NAME":"HORSE LAKE","LONGITUDE":-120.3891,"LATITUDE":40.680599999999998,"RIVER":"SNOWSTORM CREEK","YEAR_COMPL":1912,"DAM_HEIGHT":12,"MAX_STORAG":0,"STATE":"CA"}},{"type":"Feature","id":3908,"geometry":{"type":"Point","coordinates":[-13412551.487199999,4970585.6085999981]},"properties":{"FID":3908,"DAM_NAME":"COON CAMP","LONGITUDE":-120.48699999999999,"LATITUDE":40.716299999999997,"RIVER":"TR HORSE LAKE","YEAR_COMPL":1900,"DAM_HEIGHT":23,"MAX_STORAG":0,"STATE":"CA"}},{"type":"Feature","id":3909,"geometry":{"type":"Point","coordinates":[-13417761.239399999,4968059.7810000032]},"properties":{"FID":3909,"DAM_NAME":"FREDONIA","LONGITUDE":-120.5338,"LATITUDE":40.699100000000001,"RIVER":"TR PINE CREEK","YEAR_COMPL":1914,"DAM_HEIGHT":27,"MAX_STORAG":0,"STATE":"CA"}},{"type":"Feature","id":3910,"geometry":{"type":"Point","coordinates":[-13415623.905200001,4972436.3382999972]},"properties":{"FID":3910,"DAM_NAME":"BRANHAM FLAT","LONGITUDE":-120.5146,"LATITUDE":40.728900000000003,"RIVER":"BRANHAM CREEK","YEAR_COMPL":1880,"DAM_HEIGHT":20,"MAX_STORAG":0,"STATE":"CA"}},{"type":"Feature","id":3914,"geometry":{"type":"Point","coordinates":[-13465405.9814,4882478.6359999999]},"properties":{"FID":3914,"DAM_NAME":"BIDWELL LAKE","LONGITUDE":-120.9618,"LATITUDE":40.113700000000001,"RIVER":"NO CANYON CR","YEAR_COMPL":1865,"DAM_HEIGHT":35,"MAX_STORAG":0,"STATE":"CA"}},{"type":"Feature","id":3915,"geometry":{"type":"Point","coordinates":[-13484530.67,4859797.2613999993]},"properties":{"FID":3915,"DAM_NAME":"SILVER LAKE","LONGITUDE":-121.1336,"LATITUDE":39.957700000000003,"RIVER":"SILVER CREEK","YEAR_COMPL":1906,"DAM_HEIGHT":21,"MAX_STORAG":0,"STATE":"CA"}},{"type":"Feature","id":3916,"geometry":{"type":"Point","coordinates":[-13406195.144299999,4842414.2342000008]},"properties":{"FID":3916,"DAM_NAME":"GRIZZLY CREEK","LONGITUDE":-120.4299,"LATITUDE":39.837899999999998,"RIVER":"BIG GRIZZLY CR","YEAR_COMPL":1915,"DAM_HEIGHT":39,"MAX_STORAG":0,"STATE":"CA"}},{"type":"Feature","id":3925,"geometry":{"type":"Point","coordinates":[-13434559.350499999,4762995.0812999979]},"properties":{"FID":3925,"DAM_NAME":"PUTTS LAKE","LONGITUDE":-120.68470000000001,"LATITUDE":39.2879,"RIVER":"BLUE CANYON CR","YEAR_COMPL":1916,"DAM_HEIGHT":19,"MAX_STORAG":0,"STATE":"CA"}},{"type":"Feature","id":3926,"geometry":{"type":"Point","coordinates":[-13484029.7322,4767483.5297000036]},"properties":{"FID":3926,"DAM_NAME":"PINE GROVE","LONGITUDE":-121.12909999999999,"LATITUDE":39.319099999999999,"RIVER":"SHADY CREEK","YEAR_COMPL":1911,"DAM_HEIGHT":42,"MAX_STORAG":0,"STATE":"CA"}},{"type":"Feature","id":3930,"geometry":{"type":"Point","coordinates":[-13442496.430199999,4742147.1379000023]},"properties":{"FID":3930,"DAM_NAME":"MORNING STAR","LONGITUDE":-120.756,"LATITUDE":39.142800000000001,"RIVER":"NORTH FORBES CR","YEAR_COMPL":1870,"DAM_HEIGHT":44,"MAX_STORAG":0,"STATE":"CA"}},{"type":"Feature","id":3932,"geometry":{"type":"Point","coordinates":[-13501239.725499999,4774709.5322000012]},"properties":{"FID":3932,"DAM_NAME":"Los Verjels","LONGITUDE":-121.2837,"LATITUDE":39.369300000000003,"RIVER":"DRY CREEK","YEAR_COMPL":1915,"DAM_HEIGHT":56,"MAX_STORAG":0,"STATE":"CA"}},{"type":"Feature","id":3933,"geometry":{"type":"Point","coordinates":[-13529125.258000001,4809689.4372000024]},"properties":{"FID":3933,"DAM_NAME":"Cannon Ranch","LONGITUDE":-121.5342,"LATITUDE":39.611800000000002,"RIVER":"TR OREGON GULCH","YEAR_COMPL":1870,"DAM_HEIGHT":18,"MAX_STORAG":0,"STATE":"CA"}},{"type":"Feature","id":3974,"geometry":{"type":"Point","coordinates":[-13477005.4724,4649960.4623999968]},"properties":{"FID":3974,"DAM_NAME":"GRANLEES","LONGITUDE":-121.066,"LATITUDE":38.497599999999998,"RIVER":"COSUMNES RIVER","YEAR_COMPL":1921,"DAM_HEIGHT":17,"MAX_STORAG":0,"STATE":"CA"}},{"type":"Feature","id":3990,"geometry":{"type":"Point","coordinates":[-12328009.592799999,3819399.4007999972]},"properties":{"FID":3990,"DAM_NAME":"SOLDIER LAKE DAM","LONGITUDE":-110.7443944,"LATITUDE":32.42629445,"RIVER":"SABINO CANYON","YEAR_COMPL":1922,"DAM_HEIGHT":23,"MAX_STORAG":15,"STATE":"AZ"}},{"type":"Feature","id":3991,"geometry":{"type":"Point","coordinates":[-13707381.158599999,4740453.6075000018]},"properties":{"FID":3991,"DAM_NAME":"Mendocino Middle","LONGITUDE":-123.13549999999999,"LATITUDE":39.131,"RIVER":"MIDDLE CREEK","YEAR_COMPL":1908,"DAM_HEIGHT":39,"MAX_STORAG":0,"STATE":"CA"}},{"type":"Feature","id":3992,"geometry":{"type":"Point","coordinates":[-13706791.1653,4739936.9937999994]},"properties":{"FID":3992,"DAM_NAME":"Mendocino 3 Upper","LONGITUDE":-123.1302,"LATITUDE":39.127400000000002,"RIVER":"MIDDLE CREEK","YEAR_COMPL":1915,"DAM_HEIGHT":49,"MAX_STORAG":0,"STATE":"CA"}},{"type":"Feature","id":4018,"geometry":{"type":"Point","coordinates":[-13609086.0482,4618701.7665000036]},"properties":{"FID":4018,"DAM_NAME":"CAMILLE, LAKE","LONGITUDE":-122.2525,"LATITUDE":38.277500000000003,"RIVER":"TR TULUCAY CR","YEAR_COMPL":1880,"DAM_HEIGHT":30,"MAX_STORAG":0,"STATE":"CA"}},{"type":"Feature","id":4053,"geometry":{"type":"Point","coordinates":[-13658578.693799999,4938913.0943000019]},"properties":{"FID":4053,"DAM_NAME":"Misselbeck","LONGITUDE":-122.69710000000001,"LATITUDE":40.500300000000003,"RIVER":"NFK COTTONWOOD CR","YEAR_COMPL":1920,"DAM_HEIGHT":96,"MAX_STORAG":0,"STATE":"CA"}},{"type":"Feature","id":4095,"geometry":{"type":"Point","coordinates":[-13430640.9045,4577038.6846999973]},"properties":{"FID":4095,"DAM_NAME":"COPPEROPOLIS","LONGITUDE":-120.6495,"LATITUDE":37.9831,"RIVER":"PENNEY CREEK","YEAR_COMPL":1905,"DAM_HEIGHT":33,"MAX_STORAG":0,"STATE":"CA"}},{"type":"Feature","id":4097,"geometry":{"type":"Point","coordinates":[-13500761.0517,4400552.6816999987]},"properties":{"FID":4097,"DAM_NAME":"PAICINES","LONGITUDE":-121.2794,"LATITUDE":36.722900000000003,"RIVER":"TR TRES PINOS CR","YEAR_COMPL":1912,"DAM_HEIGHT":29,"MAX_STORAG":0,"STATE":"CA"}},{"type":"Feature","id":4101,"geometry":{"type":"Point","coordinates":[-13597698.064300001,4592897.2678999975]},"properties":{"FID":4101,"DAM_NAME":"HERMAN, LAKE","LONGITUDE":-122.1502,"LATITUDE":38.095300000000002,"RIVER":"SULPHUR SPRINGS CR","YEAR_COMPL":1905,"DAM_HEIGHT":51,"MAX_STORAG":0,"STATE":"CA"}},{"type":"Feature","id":4103,"geometry":{"type":"Point","coordinates":[-13112846.0221,3981594.2739999965]},"properties":{"FID":4103,"DAM_NAME":"SAND CANYON","LONGITUDE":-117.79470000000001,"LATITUDE":33.6477,"RIVER":"SAND CANYON","YEAR_COMPL":1912,"DAM_HEIGHT":58,"MAX_STORAG":0,"STATE":"CA"}},{"type":"Feature","id":4109,"geometry":{"type":"Point","coordinates":[-13491655.1174,4702824.1965000033]},"properties":{"FID":4109,"DAM_NAME":"CLOVER VALLEY","LONGITUDE":-121.19759999999999,"LATITUDE":38.868299999999998,"RIVER":"TR ANTELOPE CR","YEAR_COMPL":1909,"DAM_HEIGHT":35,"MAX_STORAG":0,"STATE":"CA"}},{"type":"Feature","id":4110,"geometry":{"type":"Point","coordinates":[-13485131.7952,4695720.7877999991]},"properties":{"FID":4110,"DAM_NAME":"MAMMOTH RESERVOIR","LONGITUDE":-121.139,"LATITUDE":38.818600000000004,"RIVER":"OFFSTREAM","YEAR_COMPL":1851,"DAM_HEIGHT":23,"MAX_STORAG":0,"STATE":"CA"}},{"type":"Feature","id":4113,"geometry":{"type":"Point","coordinates":[-13016832.961300001,3848806.7232000008]},"properties":{"FID":4113,"DAM_NAME":"UPPER OTAY","LONGITUDE":-116.93219999999999,"LATITUDE":32.649000000000001,"RIVER":"PROCTOR VAL CR","YEAR_COMPL":1901,"DAM_HEIGHT":78,"MAX_STORAG":0,"STATE":"CA"}},{"type":"Feature","id":4117,"geometry":{"type":"Point","coordinates":[-13606503.436000001,4616192.1290000007]},"properties":{"FID":4117,"DAM_NAME":"MARIE, LAKE","LONGITUDE":-122.22929999999999,"LATITUDE":38.259799999999998,"RIVER":"TR TULUCAY CR","YEAR_COMPL":1908,"DAM_HEIGHT":60,"MAX_STORAG":0,"STATE":"CA"}},{"type":"Feature","id":4131,"geometry":{"type":"Point","coordinates":[-13655561.935600001,4643888.7443000004]},"properties":{"FID":4131,"DAM_NAME":"RALPHINE, LAKE","LONGITUDE":-122.67,"LATITUDE":38.454900000000002,"RIVER":"TR SANTA ROSA CR","YEAR_COMPL":1882,"DAM_HEIGHT":35,"MAX_STORAG":0,"STATE":"CA"}},{"type":"Feature","id":4134,"geometry":{"type":"Point","coordinates":[-13399727.481899999,4409653.3740999997]},"properties":{"FID":4134,"DAM_NAME":"Mendota Diversion","LONGITUDE":-120.37179999999999,"LATITUDE":36.788400000000003,"RIVER":"SAN JOAQUIN RIVER","YEAR_COMPL":1917,"DAM_HEIGHT":23,"MAX_STORAG":0,"STATE":"CA"}},{"type":"Feature","id":4146,"geometry":{"type":"Point","coordinates":[-13283788.2322,4320467.4684000015]},"properties":{"FID":4146,"DAM_NAME":"ELK BAYOU","LONGITUDE":-119.33029999999999,"LATITUDE":36.144100000000002,"RIVER":"ELK BAYOU","YEAR_COMPL":1903,"DAM_HEIGHT":16,"MAX_STORAG":0,"STATE":"CA"}},{"type":"Feature","id":4147,"geometry":{"type":"Point","coordinates":[-13401731.2327,4583735.3364000022]},"properties":{"FID":4147,"DAM_NAME":"SAN DIEGO RESERVOIR","LONGITUDE":-120.38979999999999,"LATITUDE":38.030500000000004,"RIVER":"TR MORMON CR","YEAR_COMPL":1860,"DAM_HEIGHT":39,"MAX_STORAG":0,"STATE":"CA"}},{"type":"Feature","id":4152,"geometry":{"type":"Point","coordinates":[-13046354.8903,3900680.8957000002]},"properties":{"FID":4152,"DAM_NAME":"SAN DIEGUITO","LONGITUDE":-117.1974,"LATITUDE":33.040500000000002,"RIVER":"TR ESCONDIDO CR","YEAR_COMPL":1918,"DAM_HEIGHT":51,"MAX_STORAG":0,"STATE":"CA"}},{"type":"Feature","id":4156,"geometry":{"type":"Point","coordinates":[-13644018.1044,4710605.0515000001]},"properties":{"FID":4156,"DAM_NAME":"CLEAR LAKE","LONGITUDE":-122.5663,"LATITUDE":38.922699999999999,"RIVER":"CACHE CREEK","YEAR_COMPL":1914,"DAM_HEIGHT":35,"MAX_STORAG":378000,"STATE":"CA"}},{"type":"Feature","id":4158,"geometry":{"type":"Point","coordinates":[-13377140.757199999,4378451.5697999969]},"properties":{"FID":4158,"DAM_NAME":"Mud","LONGITUDE":-120.16889999999999,"LATITUDE":36.563600000000001,"RIVER":"FRESNO SLOUGH","YEAR_COMPL":1919,"DAM_HEIGHT":14,"MAX_STORAG":0,"STATE":"CA"}},{"type":"Feature","id":4165,"geometry":{"type":"Point","coordinates":[-13360498.4933,5113060.5393000022]},"properties":{"FID":4165,"DAM_NAME":"BOGGS AND WARREN","LONGITUDE":-120.0194,"LATITUDE":41.679299999999998,"RIVER":"EAST SAND CREEK","YEAR_COMPL":1922,"DAM_HEIGHT":12,"MAX_STORAG":0,"STATE":"CA"}},{"type":"Feature","id":4173,"geometry":{"type":"Point","coordinates":[-13633943.690499999,4941607.1405000016]},"properties":{"FID":4173,"DAM_NAME":"JAMES MONTGOMERY","LONGITUDE":-122.47580000000001,"LATITUDE":40.518700000000003,"RIVER":"FLAT CREEK","YEAR_COMPL":1869,"DAM_HEIGHT":24,"MAX_STORAG":0,"STATE":"CA"}},{"type":"Feature","id":4179,"geometry":{"type":"Point","coordinates":[-13425442.2842,4930703.7392999977]},"properties":{"FID":4179,"DAM_NAME":"PECONOM","LONGITUDE":-120.6028,"LATITUDE":40.444200000000002,"RIVER":"ANTELOPE VAL","YEAR_COMPL":1920,"DAM_HEIGHT":15,"MAX_STORAG":0,"STATE":"CA"}},{"type":"Feature","id":4181,"geometry":{"type":"Point","coordinates":[-13415657.300999999,4959708.6344999969]},"properties":{"FID":4181,"DAM_NAME":"CRAMER","LONGITUDE":-120.5149,"LATITUDE":40.642200000000003,"RIVER":"TR HORSE LAKE","YEAR_COMPL":1910,"DAM_HEIGHT":13,"MAX_STORAG":0,"STATE":"CA"}},{"type":"Feature","id":4193,"geometry":{"type":"Point","coordinates":[-13410759.2434,5020782.3153000027]},"properties":{"FID":4193,"DAM_NAME":"MADELINE","LONGITUDE":-120.4709,"LATITUDE":41.057200000000002,"RIVER":"TR MADELINE PLAINS","YEAR_COMPL":1900,"DAM_HEIGHT":22,"MAX_STORAG":0,"STATE":"CA"}},{"type":"Feature","id":4194,"geometry":{"type":"Point","coordinates":[-13398948.2454,5024710.0134000033]},"properties":{"FID":4194,"DAM_NAME":"TULE LAKE","LONGITUDE":-120.3648,"LATITUDE":41.083799999999997,"RIVER":"CEDAR CREEK","YEAR_COMPL":1904,"DAM_HEIGHT":16,"MAX_STORAG":0,"STATE":"CA"}},{"type":"Feature","id":4195,"geometry":{"type":"Point","coordinates":[-13428559.23,5014465.8925999999]},"properties":{"FID":4195,"DAM_NAME":"SPOONER","LONGITUDE":-120.63079999999999,"LATITUDE":41.014400000000002,"RIVER":"TR ASH CREEK","YEAR_COMPL":1906,"DAM_HEIGHT":17,"MAX_STORAG":0,"STATE":"CA"}},{"type":"Feature","id":4198,"geometry":{"type":"Point","coordinates":[-13231078.453299999,4047508.5350999981]},"properties":{"FID":4198,"DAM_NAME":"LAKE SHERWOOD","LONGITUDE":-118.85680000000001,"LATITUDE":34.139200000000002,"RIVER":"POTRERO VALLEY CR","YEAR_COMPL":1904,"DAM_HEIGHT":45,"MAX_STORAG":0,"STATE":"CA"}},{"type":"Feature","id":4199,"geometry":{"type":"Point","coordinates":[-13230510.7239,4047010.9095000029]},"properties":{"FID":4199,"DAM_NAME":"ELEANOR, LAKE","LONGITUDE":-118.85169999999999,"LATITUDE":34.1355,"RIVER":"ELEANOR CREEK","YEAR_COMPL":1881,"DAM_HEIGHT":37,"MAX_STORAG":0,"STATE":"CA"}},{"type":"Feature","id":4201,"geometry":{"type":"Point","coordinates":[-13217341.6282,4042035.8504000008]},"properties":{"FID":4201,"DAM_NAME":"CENTURY","LONGITUDE":-118.7334,"LATITUDE":34.098500000000001,"RIVER":"MALIBU CREEK","YEAR_COMPL":1913,"DAM_HEIGHT":44,"MAX_STORAG":0,"STATE":"CA"}},{"type":"Feature","id":4205,"geometry":{"type":"Point","coordinates":[-13461120.181,4632593.8222000003]},"properties":{"FID":4205,"DAM_NAME":"PRESTON FOREBAY","LONGITUDE":-120.9233,"LATITUDE":38.375399999999999,"RIVER":"OFFSTREAM","YEAR_COMPL":1892,"DAM_HEIGHT":40,"MAX_STORAG":0,"STATE":"CA"}},{"type":"Feature","id":4206,"geometry":{"type":"Point","coordinates":[-13618091.795,5157894.1633000001]},"properties":{"FID":4206,"DAM_NAME":"COPCO NO 1","LONGITUDE":-122.3334,"LATITUDE":41.979399999999998,"RIVER":"KLAMATH RIVER","YEAR_COMPL":1922,"DAM_HEIGHT":230,"MAX_STORAG":60000,"STATE":"CA"}},{"type":"Feature","id":4209,"geometry":{"type":"Point","coordinates":[-13640099.658300001,4628008.3624000028]},"properties":{"FID":4209,"DAM_NAME":"FERN LAKE","LONGITUDE":-122.5311,"LATITUDE":38.3431,"RIVER":"TR MILL CREEK","YEAR_COMPL":1921,"DAM_HEIGHT":40,"MAX_STORAG":0,"STATE":"CA"}},{"type":"Feature","id":4214,"geometry":{"type":"Point","coordinates":[-13623101.1721,4634922.8268000036]},"properties":{"FID":4214,"DAM_NAME":"VETERANS HOME","LONGITUDE":-122.3784,"LATITUDE":38.391800000000003,"RIVER":"TR NAPA RIVER","YEAR_COMPL":1908,"DAM_HEIGHT":47,"MAX_STORAG":0,"STATE":"CA"}},{"type":"Feature","id":4227,"geometry":{"type":"Point","coordinates":[-13305929.6789,4479928.3311000019]},"properties":{"FID":4227,"DAM_NAME":"CRANE VALLEY","LONGITUDE":-119.5292,"LATITUDE":37.292299999999997,"RIVER":"NORTH FORK WILLOW CREEK","YEAR_COMPL":1910,"DAM_HEIGHT":145,"MAX_STORAG":45410,"STATE":"CA"}},{"type":"Feature","id":4228,"geometry":{"type":"Point","coordinates":[-13302267.2677,4461292.5703999996]},"properties":{"FID":4228,"DAM_NAME":"#1 Forebay","LONGITUDE":-119.49630000000001,"LATITUDE":37.158999999999999,"RIVER":"NORTH FORK WILLOW CREEK","YEAR_COMPL":1896,"DAM_HEIGHT":15,"MAX_STORAG":69,"STATE":"CA"}},{"type":"Feature","id":4229,"geometry":{"type":"Point","coordinates":[-13306297.033199999,4474500.5684999973]},"properties":{"FID":4229,"DAM_NAME":"#3 Forebay","LONGITUDE":-119.5325,"LATITUDE":37.253500000000003,"RIVER":"NORTH FORK WILLOW CREEK","YEAR_COMPL":1906,"DAM_HEIGHT":40,"MAX_STORAG":20,"STATE":"CA"}},{"type":"Feature","id":4230,"geometry":{"type":"Point","coordinates":[-13305729.3038,4457019.2352000028]},"properties":{"FID":4230,"DAM_NAME":"KERCKHOFF","LONGITUDE":-119.5274,"LATITUDE":37.128399999999999,"RIVER":"SAN JOAQUIN RIVER","YEAR_COMPL":1920,"DAM_HEIGHT":114,"MAX_STORAG":4252,"STATE":"CA"}},{"type":"Feature","id":4231,"geometry":{"type":"Point","coordinates":[-13395018.667399999,4512146.8526000008]},"properties":{"FID":4231,"DAM_NAME":"MERCED FALLS","LONGITUDE":-120.3295,"LATITUDE":37.522199999999998,"RIVER":"MERCED RIVER","YEAR_COMPL":1901,"DAM_HEIGHT":43,"MAX_STORAG":678,"STATE":"CA"}},{"type":"Feature","id":4232,"geometry":{"type":"Point","coordinates":[-13304293.282400001,4473172.0320999995]},"properties":{"FID":4232,"DAM_NAME":"MANZANITA DIVERSION","LONGITUDE":-119.5145,"LATITUDE":37.244,"RIVER":"NORTH FORK WILLOW CREEK","YEAR_COMPL":1917,"DAM_HEIGHT":30,"MAX_STORAG":168,"STATE":"CA"}},{"type":"Feature","id":4234,"geometry":{"type":"Point","coordinates":[-13533745.016800001,4824323.4513000026]},"properties":{"FID":4234,"DAM_NAME":"KUNKLE","LONGITUDE":-121.5757,"LATITUDE":39.713000000000001,"RIVER":"TR W BR FEATHER R","YEAR_COMPL":1907,"DAM_HEIGHT":54,"MAX_STORAG":0,"STATE":"CA"}},{"type":"Feature","id":4237,"geometry":{"type":"Point","coordinates":[-13520108.3792,4876556.1180000007]},"properties":{"FID":4237,"DAM_NAME":"ROUND VALLEY","LONGITUDE":-121.4532,"LATITUDE":40.073,"RIVER":"WEST BRANCH FEATHER RIVER","YEAR_COMPL":1877,"DAM_HEIGHT":29.399999999999999,"MAX_STORAG":1200,"STATE":"CA"}},{"type":"Feature","id":4238,"geometry":{"type":"Point","coordinates":[-13429171.487199999,4773125.7009999976]},"properties":{"FID":4238,"DAM_NAME":"BLUE LAKE","LONGITUDE":-120.63630000000001,"LATITUDE":39.3583,"RIVER":"RUCKER CREEK","YEAR_COMPL":1856,"DAM_HEIGHT":21,"MAX_STORAG":1163,"STATE":"CA"}},{"type":"Feature","id":4239,"geometry":{"type":"Point","coordinates":[-13474422.860199999,4715356.5931999981]},"properties":{"FID":4239,"DAM_NAME":"HALSEY AFTERBAY","LONGITUDE":-121.0428,"LATITUDE":38.9559,"RIVER":"DRY CREEK","YEAR_COMPL":1913,"DAM_HEIGHT":38,"MAX_STORAG":106,"STATE":"CA"}},{"type":"Feature","id":4240,"geometry":{"type":"Point","coordinates":[-13427735.4658,4782185.7035999969]},"properties":{"FID":4240,"DAM_NAME":"CULBERTSON LAKE","LONGITUDE":-120.6234,"LATITUDE":39.421199999999999,"RIVER":"TEXAS CREEK - TR","YEAR_COMPL":1852,"DAM_HEIGHT":20,"MAX_STORAG":953,"STATE":"CA"}},{"type":"Feature","id":4241,"geometry":{"type":"Point","coordinates":[-13441895.305,4757660.4575000033]},"properties":{"FID":4241,"DAM_NAME":"DRUM FOREBAY","LONGITUDE":-120.75060000000001,"LATITUDE":39.250799999999998,"RIVER":"DRUM CANAL","YEAR_COMPL":1913,"DAM_HEIGHT":65,"MAX_STORAG":621,"STATE":"CA"}},{"type":"Feature","id":4242,"geometry":{"type":"Point","coordinates":[-13430774.4879,4771196.6437000036]},"properties":{"FID":4242,"DAM_NAME":"FULLER LAKE","LONGITUDE":-120.6507,"LATITUDE":39.344900000000003,"RIVER":"JOHN CREEK - TRIBUTARY","YEAR_COMPL":1856,"DAM_HEIGHT":39,"MAX_STORAG":1127,"STATE":"CA"}},{"type":"Feature","id":4243,"geometry":{"type":"Point","coordinates":[-13473699.283500001,4717604.3322999999]},"properties":{"FID":4243,"DAM_NAME":"HALSEY FOREBAY NO. 1","LONGITUDE":-121.0363,"LATITUDE":38.971600000000002,"RIVER":"DRY CREEK","YEAR_COMPL":1913,"DAM_HEIGHT":42,"MAX_STORAG":244,"STATE":"CA"}},{"type":"Feature","id":4244,"geometry":{"type":"Point","coordinates":[-13474133.429499999,4717704.5615999997]},"properties":{"FID":4244,"DAM_NAME":"HALSEY FOREBAY NO. 2","LONGITUDE":-121.0402,"LATITUDE":38.972299999999997,"RIVER":"DRY CREEK","YEAR_COMPL":1913,"DAM_HEIGHT":55,"MAX_STORAG":244,"STATE":"CA"}},{"type":"Feature","id":4246,"geometry":{"type":"Point","coordinates":[-13406506.8389,4766274.9045000002]},"properties":{"FID":4246,"DAM_NAME":"KIDD LAKE MAIN","LONGITUDE":-120.4327,"LATITUDE":39.310699999999997,"RIVER":"SOUTH YUBA RIVER - TR","YEAR_COMPL":1850,"DAM_HEIGHT":35,"MAX_STORAG":1505,"STATE":"CA"}},{"type":"Feature","id":4247,"geometry":{"type":"Point","coordinates":[-13406228.540100001,4766677.7634000033]},"properties":{"FID":4247,"DAM_NAME":"KIDD LAKE AUXILIARY","LONGITUDE":-120.4302,"LATITUDE":39.313499999999998,"RIVER":"SOUTH YUBA RIVER - TR","YEAR_COMPL":1850,"DAM_HEIGHT":15,"MAX_STORAG":1505,"STATE":"CA"}},{"type":"Feature","id":4248,"geometry":{"type":"Point","coordinates":[-13449253.5233,4750719.6084000021]},"properties":{"FID":4248,"DAM_NAME":"LAKE ALTA","LONGITUDE":-120.8167,"LATITUDE":39.202500000000001,"RIVER":"TR NFK AMERICAN R","YEAR_COMPL":1862,"DAM_HEIGHT":22,"MAX_STORAG":0,"STATE":"CA"}},{"type":"Feature","id":4249,"geometry":{"type":"Point","coordinates":[-13472519.2969,4716444.6084999964]},"properties":{"FID":4249,"DAM_NAME":"LAKE ARTHUR","LONGITUDE":-121.0257,"LATITUDE":38.963500000000003,"RIVER":"SFK DRY CREEK","YEAR_COMPL":1909,"DAM_HEIGHT":44,"MAX_STORAG":0,"STATE":"CA"}},{"type":"Feature","id":4250,"geometry":{"type":"Point","coordinates":[-13413586.7585,4776250.4073000029]},"properties":{"FID":4250,"DAM_NAME":"LAKE FORDYCE","LONGITUDE":-120.49630000000001,"LATITUDE":39.380000000000003,"RIVER":"FORDYCE CREEK","YEAR_COMPL":1873,"DAM_HEIGHT":145,"MAX_STORAG":49903,"STATE":"CA"}},{"type":"Feature","id":4251,"geometry":{"type":"Point","coordinates":[-13429928.4597,4768634.7362999991]},"properties":{"FID":4251,"DAM_NAME":"LAKE SPAULDING NO. 1","LONGITUDE":-120.6431,"LATITUDE":39.327100000000002,"RIVER":"SOUTH YUBA RIVER","YEAR_COMPL":1912,"DAM_HEIGHT":276,"MAX_STORAG":74773,"STATE":"CA"}},{"type":"Feature","id":4252,"geometry":{"type":"Point","coordinates":[-13429672.424899999,4769598.9732000008]},"properties":{"FID":4252,"DAM_NAME":"LAKE SPAULDING NO. 3 AUXILIARY","LONGITUDE":-120.6408,"LATITUDE":39.333799999999997,"RIVER":"SOUTH YUBA RIVER","YEAR_COMPL":1919,"DAM_HEIGHT":91,"MAX_STORAG":74773,"STATE":"CA"}},{"type":"Feature","id":4253,"geometry":{"type":"Point","coordinates":[-13429817.1402,4769008.9069000036]},"properties":{"FID":4253,"DAM_NAME":"LAKE SPAULDING NO. 2","LONGITUDE":-120.6421,"LATITUDE":39.329700000000003,"RIVER":"SOUTH YUBA RIVER","YEAR_COMPL":1916,"DAM_HEIGHT":42,"MAX_STORAG":74773,"STATE":"CA"}},{"type":"Feature","id":4254,"geometry":{"type":"Point","coordinates":[-13413174.876400001,4772938.5375000015]},"properties":{"FID":4254,"DAM_NAME":"LAKE STERLING","LONGITUDE":-120.4926,"LATITUDE":39.356999999999999,"RIVER":"FORDYCE CREEK - TR","YEAR_COMPL":1858,"DAM_HEIGHT":32,"MAX_STORAG":1764,"STATE":"CA"}},{"type":"Feature","id":4255,"geometry":{"type":"Point","coordinates":[-13471172.3311,4717804.7917999998]},"properties":{"FID":4255,"DAM_NAME":"LAKE THEODORE","LONGITUDE":-121.0136,"LATITUDE":38.972999999999999,"RIVER":"SFK DRY CREEK","YEAR_COMPL":1896,"DAM_HEIGHT":40,"MAX_STORAG":0,"STATE":"CA"}},{"type":"Feature","id":4256,"geometry":{"type":"Point","coordinates":[-13424896.818700001,4764764.3268999979]},"properties":{"FID":4256,"DAM_NAME":"LAKE VALLEY MAIN","LONGITUDE":-120.5979,"LATITUDE":39.300199999999997,"RIVER":"NORTH FORK AMERICAN RIVER","YEAR_COMPL":1889,"DAM_HEIGHT":75,"MAX_STORAG":7964,"STATE":"CA"}},{"type":"Feature","id":4257,"geometry":{"type":"Point","coordinates":[-13425152.853599999,4764951.3385000005]},"properties":{"FID":4257,"DAM_NAME":"LAKE VALLEY AUXILIARY","LONGITUDE":-120.6002,"LATITUDE":39.301499999999997,"RIVER":"NORTH FORK AMERICAN RIVER","YEAR_COMPL":1889,"DAM_HEIGHT":28,"MAX_STORAG":7964,"STATE":"CA"}},{"type":"Feature","id":4258,"geometry":{"type":"Point","coordinates":[-13400306.3432,4767900.8268999979]},"properties":{"FID":4258,"DAM_NAME":"Lake Van Norden","LONGITUDE":-120.377,"LATITUDE":39.322000000000003,"RIVER":"SOUTH YUBA RIVER","YEAR_COMPL":1916,"DAM_HEIGHT":30,"MAX_STORAG":0,"STATE":"CA"}},{"type":"Feature","id":4259,"geometry":{"type":"Point","coordinates":[-13429972.987500001,4779001.5287000015]},"properties":{"FID":4259,"DAM_NAME":"LOWER FEELEY","LONGITUDE":-120.6435,"LATITUDE":39.399099999999997,"RIVER":"FALL CREEK - TR","YEAR_COMPL":1870,"DAM_HEIGHT":19,"MAX_STORAG":150,"STATE":"CA"}},{"type":"Feature","id":4260,"geometry":{"type":"Point","coordinates":[-13430084.307,4780845.6336999983]},"properties":{"FID":4260,"DAM_NAME":"LOWER LINDSEY","LONGITUDE":-120.64449999999999,"LATITUDE":39.411900000000003,"RIVER":"LINDSEY CREEK","YEAR_COMPL":1870,"DAM_HEIGHT":16,"MAX_STORAG":293,"STATE":"CA"}},{"type":"Feature","id":4261,"geometry":{"type":"Point","coordinates":[-13407297.2072,4765210.2832999974]},"properties":{"FID":4261,"DAM_NAME":"Lower Peak","LONGITUDE":-120.43980000000001,"LATITUDE":39.3033,"RIVER":"SOUTH YUBA RIVER - TRIBUTARY","YEAR_COMPL":1860,"DAM_HEIGHT":31,"MAX_STORAG":484,"STATE":"CA"}},{"type":"Feature","id":4262,"geometry":{"type":"Point","coordinates":[-13407096.8322,4765354.1445000023]},"properties":{"FID":4262,"DAM_NAME":"LOWER PEAK LAKE AUXILIARY","LONGITUDE":-120.438,"LATITUDE":39.304299999999998,"RIVER":"SOUTH YUBA RIVER - TR","YEAR_COMPL":1860,"DAM_HEIGHT":7,"MAX_STORAG":484,"STATE":"CA"}},{"type":"Feature","id":4263,"geometry":{"type":"Point","coordinates":[-13414121.092,4780024.3888999969]},"properties":{"FID":4263,"DAM_NAME":"MEADOW LAKE","LONGITUDE":-120.50109999999999,"LATITUDE":39.406199999999998,"RIVER":"FORDYCE CREEK - TR","YEAR_COMPL":1855,"DAM_HEIGHT":38,"MAX_STORAG":5656,"STATE":"CA"}},{"type":"Feature","id":4264,"geometry":{"type":"Point","coordinates":[-13428826.3968,4781378.7582999989]},"properties":{"FID":4264,"DAM_NAME":"MIDDLE LINDSEY","LONGITUDE":-120.6332,"LATITUDE":39.415599999999998,"RIVER":"LINDSEY CREEK","YEAR_COMPL":1870,"DAM_HEIGHT":8,"MAX_STORAG":110,"STATE":"CA"}},{"type":"Feature","id":4265,"geometry":{"type":"Point","coordinates":[-13479710.536,4714111.245099999]},"properties":{"FID":4265,"DAM_NAME":"ROCK CREEK","LONGITUDE":-121.0903,"LATITUDE":38.947200000000002,"RIVER":"ROCK CREEK","YEAR_COMPL":1913,"DAM_HEIGHT":36,"MAX_STORAG":415,"STATE":"CA"}},{"type":"Feature","id":4266,"geometry":{"type":"Point","coordinates":[-13431595.1351,4772856.6185000017]},"properties":{"FID":4266,"DAM_NAME":"RUCKER LAKE","LONGITUDE":-120.658072,"LATITUDE":39.356431000000001,"RIVER":"RUCKER CREEK","YEAR_COMPL":1856,"DAM_HEIGHT":22,"MAX_STORAG":648,"STATE":"CA"}},{"type":"Feature","id":4267,"geometry":{"type":"Point","coordinates":[-13429360.7303,4779159.9931000024]},"properties":{"FID":4267,"DAM_NAME":"UPPER FEELEY","LONGITUDE":-120.63800000000001,"LATITUDE":39.400199999999998,"RIVER":"FALL CREEK - TR","YEAR_COMPL":1870,"DAM_HEIGHT":23,"MAX_STORAG":739,"STATE":"CA"}},{"type":"Feature","id":4268,"geometry":{"type":"Point","coordinates":[-13406807.4015,4764807.483099997]},"properties":{"FID":4268,"DAM_NAME":"Upper Peak Lake","LONGITUDE":-120.4354,"LATITUDE":39.3005,"RIVER":"SOUTH YUBA RIVER - TR","YEAR_COMPL":1850,"DAM_HEIGHT":39,"MAX_STORAG":207,"STATE":"CA"}},{"type":"Feature","id":4269,"geometry":{"type":"Point","coordinates":[-13427212.2641,4783482.7157000005]},"properties":{"FID":4269,"DAM_NAME":"UPPER ROCK LAKE MAIN","LONGITUDE":-120.6187,"LATITUDE":39.430199999999999,"RIVER":"TEXAS CREEK","YEAR_COMPL":1855,"DAM_HEIGHT":17,"MAX_STORAG":190,"STATE":"CA"}},{"type":"Feature","id":4270,"geometry":{"type":"Point","coordinates":[-13427100.944699999,4783425.0671000034]},"properties":{"FID":4270,"DAM_NAME":"UPPER ROCK LAKE AUXILIARY","LONGITUDE":-120.6177,"LATITUDE":39.4298,"RIVER":"TEXAS CREEK","YEAR_COMPL":1855,"DAM_HEIGHT":8,"MAX_STORAG":190,"STATE":"CA"}},{"type":"Feature","id":4271,"geometry":{"type":"Point","coordinates":[-13401564.2535,4781666.945600003]},"properties":{"FID":4271,"DAM_NAME":"WHITE ROCK LAKE","LONGITUDE":-120.3883,"LATITUDE":39.4176,"RIVER":"WHITE ROCK CREEK","YEAR_COMPL":1855,"DAM_HEIGHT":13,"MAX_STORAG":570,"STATE":"CA"}},{"type":"Feature","id":4274,"geometry":{"type":"Point","coordinates":[-13373567.4015,4701623.2718999982]},"properties":{"FID":4274,"DAM_NAME":"Medley Lakes","LONGITUDE":-120.13679999999999,"LATITUDE":38.859900000000003,"RIVER":"SOUTH FORK AMERICAN RIVER","YEAR_COMPL":1917,"DAM_HEIGHT":32,"MAX_STORAG":5063,"STATE":"CA"}},{"type":"Feature","id":4275,"geometry":{"type":"Point","coordinates":[-13372721.373399999,4701623.2718999982]},"properties":{"FID":4275,"DAM_NAME":"LAKE ALOHA AUXILIARY NO. 4","LONGITUDE":-120.1292,"LATITUDE":38.859900000000003,"RIVER":"SOUTH FORK AMERICAN RIVER","YEAR_COMPL":1917,"DAM_HEIGHT":9,"MAX_STORAG":5063,"STATE":"CA"}},{"type":"Feature","id":4276,"geometry":{"type":"Point","coordinates":[-13371997.796700001,4674269.1550000012]},"properties":{"FID":4276,"DAM_NAME":"Silver Lake","LONGITUDE":-120.12269999999999,"LATITUDE":38.668300000000002,"RIVER":"SILVER FORK AMERICAN RIVER","YEAR_COMPL":1876,"DAM_HEIGHT":32,"MAX_STORAG":13130,"STATE":"CA"}},{"type":"Feature","id":4277,"geometry":{"type":"Point","coordinates":[-13363826.9461,4679731.2546999976]},"properties":{"FID":4277,"DAM_NAME":"CAPLES LAKE MAIN","LONGITUDE":-120.0493,"LATITUDE":38.706600000000002,"RIVER":"CAPLES CREEK","YEAR_COMPL":1922,"DAM_HEIGHT":86,"MAX_STORAG":22338,"STATE":"CA"}},{"type":"Feature","id":4278,"geometry":{"type":"Point","coordinates":[-13365619.1899,4679217.7214000002]},"properties":{"FID":4278,"DAM_NAME":"CAPLES LAKE AUXILIARY","LONGITUDE":-120.0654,"LATITUDE":38.703000000000003,"RIVER":"CAPLES CREEK","YEAR_COMPL":1922,"DAM_HEIGHT":33.5,"MAX_STORAG":22338,"STATE":"CA"}},{"type":"Feature","id":4279,"geometry":{"type":"Point","coordinates":[-13382417.301100001,4658512.4715000018]},"properties":{"FID":4279,"DAM_NAME":"UPPER BEAR","LONGITUDE":-120.2163,"LATITUDE":38.557699999999997,"RIVER":"BEAR RIVER","YEAR_COMPL":1900,"DAM_HEIGHT":77,"MAX_STORAG":7306,"STATE":"CA"}},{"type":"Feature","id":4280,"geometry":{"type":"Point","coordinates":[-13350223.704300001,4665789.4394000024]},"properties":{"FID":4280,"DAM_NAME":"Lower Blue Lake","LONGITUDE":-119.9271,"LATITUDE":38.608800000000002,"RIVER":"BLUE CREEK","YEAR_COMPL":1885,"DAM_HEIGHT":40,"MAX_STORAG":5091,"STATE":"CA"}},{"type":"Feature","id":4281,"geometry":{"type":"Point","coordinates":[-13355600.435699999,4663738.2629000023]},"properties":{"FID":4281,"DAM_NAME":"MEADOW LAKE","LONGITUDE":-119.97539999999999,"LATITUDE":38.5944,"RIVER":"NORTH FORK MOKELUMNE RIVER-TR","YEAR_COMPL":1903,"DAM_HEIGHT":73.5,"MAX_STORAG":4935,"STATE":"CA"}},{"type":"Feature","id":4283,"geometry":{"type":"Point","coordinates":[-13432522.2039,4628675.4693000019]},"properties":{"FID":4283,"DAM_NAME":"TABEAUD","LONGITUDE":-120.6664,"LATITUDE":38.347799999999999,"RIVER":"SOUTH FORK JACKSON CREEK - TR","YEAR_COMPL":1901,"DAM_HEIGHT":125,"MAX_STORAG":1259,"STATE":"CA"}},{"type":"Feature","id":4284,"geometry":{"type":"Point","coordinates":[-13352149.531500001,4665789.4394000024]},"properties":{"FID":4284,"DAM_NAME":"TWIN LAKE","LONGITUDE":-119.9444,"LATITUDE":38.608800000000002,"RIVER":"NORTH FORK MOKELUMNE RIVER-TR","YEAR_COMPL":1903,"DAM_HEIGHT":22,"MAX_STORAG":21581,"STATE":"CA"}},{"type":"Feature","id":4285,"geometry":{"type":"Point","coordinates":[-13351771.0452,4668553.4808999971]},"properties":{"FID":4285,"DAM_NAME":"Upper Blue Lake","LONGITUDE":-119.941,"LATITUDE":38.6282,"RIVER":"BLUE CREEK","YEAR_COMPL":1901,"DAM_HEIGHT":21,"MAX_STORAG":7300,"STATE":"CA"}},{"type":"Feature","id":4287,"geometry":{"type":"Point","coordinates":[-13357147.7766,4607646.932599999]},"properties":{"FID":4287,"DAM_NAME":"STRAWBERRY","LONGITUDE":-119.9893,"LATITUDE":38.1995,"RIVER":"SOUTH FORK STANISLAUS RIVER","YEAR_COMPL":1916,"DAM_HEIGHT":143,"MAX_STORAG":19000,"STATE":"CA"}},{"type":"Feature","id":4288,"geometry":{"type":"Point","coordinates":[-13394773.7645,4579397.5596000031]},"properties":{"FID":4288,"DAM_NAME":"PHOENIX","LONGITUDE":-120.32729999999999,"LATITUDE":37.9998,"RIVER":"SULLIVAN CREEK","YEAR_COMPL":1880,"DAM_HEIGHT":52,"MAX_STORAG":0,"STATE":"CA"}},{"type":"Feature","id":4289,"geometry":{"type":"Point","coordinates":[-13328694.514800001,4619226.4572999999]},"properties":{"FID":4289,"DAM_NAME":"RELIEF","LONGITUDE":-119.7337,"LATITUDE":38.281199999999998,"RIVER":"SUMMIT CREEK","YEAR_COMPL":1909,"DAM_HEIGHT":140,"MAX_STORAG":15554,"STATE":"CA"}},{"type":"Feature","id":4290,"geometry":{"type":"Point","coordinates":[-13397823.9186,4600085.4513999969]},"properties":{"FID":4290,"DAM_NAME":"STANISLAUS FOREBAY EAST","LONGITUDE":-120.35469999999999,"LATITUDE":38.146099999999997,"RIVER":"NORTH FORK STANISLAUS RIVER-OS","YEAR_COMPL":1908,"DAM_HEIGHT":55,"MAX_STORAG":320,"STATE":"CA"}},{"type":"Feature","id":4291,"geometry":{"type":"Point","coordinates":[-13398224.6687,4599901.4394999966]},"properties":{"FID":4291,"DAM_NAME":"STANISLAUS FOREBAY WEST","LONGITUDE":-120.3583,"LATITUDE":38.144799999999996,"RIVER":"NORTH FORK STANISLAUS RIVER-OS","YEAR_COMPL":1908,"DAM_HEIGHT":60,"MAX_STORAG":320,"STATE":"CA"}},{"type":"Feature","id":4292,"geometry":{"type":"Point","coordinates":[-13593668.298700001,4926184.9351999983]},"properties":{"FID":4292,"DAM_NAME":"COLEMAN FOREBAY","LONGITUDE":-122.114,"LATITUDE":40.4133,"RIVER":"SOUTH FORK BATTLE CREEK - OS","YEAR_COMPL":1911,"DAM_HEIGHT":20,"MAX_STORAG":76,"STATE":"CA"}},{"type":"Feature","id":4293,"geometry":{"type":"Point","coordinates":[-13551222.176899999,4944404.4597999975]},"properties":{"FID":4293,"DAM_NAME":"MACUMBER","LONGITUDE":-121.73269999999999,"LATITUDE":40.537799999999997,"RIVER":"NORTH FORK BATTLE CREEK","YEAR_COMPL":1907,"DAM_HEIGHT":27,"MAX_STORAG":430,"STATE":"CA"}},{"type":"Feature","id":4294,"geometry":{"type":"Point","coordinates":[-13542606.0483,4953930.1133999974]},"properties":{"FID":4294,"DAM_NAME":"NORTH BATTLE CREEK","LONGITUDE":-121.6553,"LATITUDE":40.602800000000002,"RIVER":"NORTH FORK BATTLE CREEK","YEAR_COMPL":1909,"DAM_HEIGHT":51,"MAX_STORAG":1090,"STATE":"CA"}},{"type":"Feature","id":4296,"geometry":{"type":"Point","coordinates":[-13521377.421399999,5014215.0914999992]},"properties":{"FID":4296,"DAM_NAME":"PIT #1 DIVERSION","LONGITUDE":-121.4646,"LATITUDE":41.012700000000002,"RIVER":"FALL RIVER","YEAR_COMPL":1922,"DAM_HEIGHT":15,"MAX_STORAG":0,"STATE":"CA"}},{"type":"Feature","id":4298,"geometry":{"type":"Point","coordinates":[-13687655.344799999,4780326.9448999986]},"properties":{"FID":4298,"DAM_NAME":"SCOTT","LONGITUDE":-122.95829999999999,"LATITUDE":39.408299999999997,"RIVER":"EEL RIVER","YEAR_COMPL":1921,"DAM_HEIGHT":134,"MAX_STORAG":80463,"STATE":"CA"}},{"type":"Feature","id":4299,"geometry":{"type":"Point","coordinates":[-13705232.692400001,4777128.9557999969]},"properties":{"FID":4299,"DAM_NAME":"CAPE HORN","LONGITUDE":-123.11620000000001,"LATITUDE":39.386099999999999,"RIVER":"EEL RIVER","YEAR_COMPL":1907,"DAM_HEIGHT":60,"MAX_STORAG":390,"STATE":"CA"}},{"type":"Feature","id":4310,"geometry":{"type":"Point","coordinates":[-13029601.3069,3866443.4518000036]},"properties":{"FID":4310,"DAM_NAME":"MURRAY","LONGITUDE":-117.04689999999999,"LATITUDE":32.782299999999999,"RIVER":"CHAPARRAL","YEAR_COMPL":1918,"DAM_HEIGHT":110,"MAX_STORAG":0,"STATE":"CA"}},{"type":"Feature","id":4316,"geometry":{"type":"Point","coordinates":[-13111955.4662,4027445.9235000014]},"properties":{"FID":4316,"DAM_NAME":"CHINO RANCH #1","LONGITUDE":-117.7867,"LATITUDE":33.989899999999999,"RIVER":"TONNER CANYON CR","YEAR_COMPL":1918,"DAM_HEIGHT":22,"MAX_STORAG":0,"STATE":"CA"}},{"type":"Feature","id":4318,"geometry":{"type":"Point","coordinates":[-13021886.8662,4061383.5842000023]},"properties":{"FID":4318,"DAM_NAME":"BEAR VALLEY","LONGITUDE":-116.9776,"LATITUDE":34.2423,"RIVER":"BEAR CREEK","YEAR_COMPL":1911,"DAM_HEIGHT":80,"MAX_STORAG":0,"STATE":"CA"}},{"type":"Feature","id":4320,"geometry":{"type":"Point","coordinates":[-13043037.569499999,4063848.1463000029]},"properties":{"FID":4320,"DAM_NAME":"LAKE ARROWHEAD","LONGITUDE":-117.16759999999999,"LATITUDE":34.260599999999997,"RIVER":"LITTLE BEAR CR","YEAR_COMPL":1922,"DAM_HEIGHT":190,"MAX_STORAG":0,"STATE":"CA"}},{"type":"Feature","id":4322,"geometry":{"type":"Point","coordinates":[-13103294.809799999,4025687.2581999972]},"properties":{"FID":4322,"DAM_NAME":"RANCHO CIELITO","LONGITUDE":-117.7089,"LATITUDE":33.976799999999997,"RIVER":"TR CHINO CREEK","YEAR_COMPL":1912,"DAM_HEIGHT":9,"MAX_STORAG":0,"STATE":"CA"}},{"type":"Feature","id":4323,"geometry":{"type":"Point","coordinates":[-12991697.020300001,3983934.6730000004]},"properties":{"FID":4323,"DAM_NAME":"LAKE HEMET","LONGITUDE":-116.7064,"LATITUDE":33.665199999999999,"RIVER":"TR SAN JACINTO RIVER","YEAR_COMPL":1895,"DAM_HEIGHT":135,"MAX_STORAG":0,"STATE":"CA"}},{"type":"Feature","id":4325,"geometry":{"type":"Point","coordinates":[-13074006.651799999,3995309.1062000021]},"properties":{"FID":4325,"DAM_NAME":"LEE LAKE","LONGITUDE":-117.44580000000001,"LATITUDE":33.7502,"RIVER":"TEMESCAL CREEK","YEAR_COMPL":1893,"DAM_HEIGHT":47,"MAX_STORAG":0,"STATE":"CA"}},{"type":"Feature","id":4326,"geometry":{"type":"Point","coordinates":[-13036503.1154,4025714.1059999987]},"properties":{"FID":4326,"DAM_NAME":"EL CASCO","LONGITUDE":-117.10890000000001,"LATITUDE":33.976999999999997,"RIVER":"SAN TIMOTEO CREEK","YEAR_COMPL":1879,"DAM_HEIGHT":19,"MAX_STORAG":0,"STATE":"CA"}},{"type":"Feature","id":4333,"geometry":{"type":"Point","coordinates":[-12977414.729600001,3865622.5538000017]},"properties":{"FID":4333,"DAM_NAME":"CORTE MADERA","LONGITUDE":-116.57810000000001,"LATITUDE":32.7761,"RIVER":"TR PINE VALLEY CR","YEAR_COMPL":1919,"DAM_HEIGHT":16,"MAX_STORAG":0,"STATE":"CA"}},{"type":"Feature","id":4334,"geometry":{"type":"Point","coordinates":[-13025326.638500001,3854506.3390000015]},"properties":{"FID":4334,"DAM_NAME":"SWEETWATER MAIN","LONGITUDE":-117.0085,"LATITUDE":32.692100000000003,"RIVER":"SWEETWATER RIVER","YEAR_COMPL":1888,"DAM_HEIGHT":112,"MAX_STORAG":0,"STATE":"CA"}},{"type":"Feature","id":4389,"geometry":{"type":"Point","coordinates":[-13115039.016100001,4011533.8242999986]},"properties":{"FID":4389,"DAM_NAME":"YORBA","LONGITUDE":-117.81440000000001,"LATITUDE":33.871299999999998,"RIVER":"TR SANTA ANA RIVER","YEAR_COMPL":1907,"DAM_HEIGHT":45,"MAX_STORAG":0,"STATE":"CA"}},{"type":"Feature","id":4391,"geometry":{"type":"Point","coordinates":[-13645231.4869,4621694.2807999998]},"properties":{"FID":4391,"DAM_NAME":"LAWLER","LONGITUDE":-122.5772,"LATITUDE":38.2986,"RIVER":"NORTH CREEK","YEAR_COMPL":1910,"DAM_HEIGHT":40,"MAX_STORAG":0,"STATE":"CA"}},{"type":"Feature","id":4412,"geometry":{"type":"Point","coordinates":[-13437709.6921,4831648.5084000006]},"properties":{"FID":4412,"DAM_NAME":"EUREKA","LONGITUDE":-120.71299999999999,"LATITUDE":39.763599999999997,"RIVER":"EUREKA CREEK","YEAR_COMPL":1866,"DAM_HEIGHT":29,"MAX_STORAG":0,"STATE":"CA"}},{"type":"Feature","id":4444,"geometry":{"type":"Point","coordinates":[-13206076.095699999,4059431.1695000008]},"properties":{"FID":4444,"DAM_NAME":"CHATSWORTH","LONGITUDE":-118.6322,"LATITUDE":34.227800000000002,"RIVER":"TR LOS ANGELES R","YEAR_COMPL":1918,"DAM_HEIGHT":45,"MAX_STORAG":0,"STATE":"CA"}},{"type":"Feature","id":4445,"geometry":{"type":"Point","coordinates":[-13194621.3201,4093613.4064999968]},"properties":{"FID":4445,"DAM_NAME":"DRY CANYON","LONGITUDE":-118.52930000000001,"LATITUDE":34.481299999999997,"RIVER":"DRY CANYON CR","YEAR_COMPL":1912,"DAM_HEIGHT":66,"MAX_STORAG":0,"STATE":"CA"}},{"type":"Feature","id":4448,"geometry":{"type":"Point","coordinates":[-13183277.864,4123850.1964000016]},"properties":{"FID":4448,"DAM_NAME":"FAIRMONT","LONGITUDE":-118.42740000000001,"LATITUDE":34.704900000000002,"RIVER":"ANTELOPE VALLEY","YEAR_COMPL":1912,"DAM_HEIGHT":121,"MAX_STORAG":0,"STATE":"CA"}},{"type":"Feature","id":4449,"geometry":{"type":"Point","coordinates":[-13181563.5438,4041525.0216000006]},"properties":{"FID":4449,"DAM_NAME":"LOWER FRANKLIN","LONGITUDE":-118.41200000000001,"LATITUDE":34.094700000000003,"RIVER":"FRANKLIN CANYON","YEAR_COMPL":1922,"DAM_HEIGHT":103,"MAX_STORAG":0,"STATE":"CA"}},{"type":"Feature","id":4450,"geometry":{"type":"Point","coordinates":[-13189266.852600001,4067175.4822999984]},"properties":{"FID":4450,"DAM_NAME":"LOWER SAN FERNANDO","LONGITUDE":-118.4812,"LATITUDE":34.285299999999999,"RIVER":"SAN FERNANDO CREEK","YEAR_COMPL":1918,"DAM_HEIGHT":125,"MAX_STORAG":0,"STATE":"CA"}},{"type":"Feature","id":4454,"geometry":{"type":"Point","coordinates":[-13130479.0295,4319571.4754000008]},"properties":{"FID":4454,"DAM_NAME":"HAIWEE","LONGITUDE":-117.95310000000001,"LATITUDE":36.137599999999999,"RIVER":"ROSE VALLEY","YEAR_COMPL":1913,"DAM_HEIGHT":81,"MAX_STORAG":0,"STATE":"CA"}},{"type":"Feature","id":4457,"geometry":{"type":"Point","coordinates":[-13183010.6972,4041117.7193000019]},"properties":{"FID":4457,"DAM_NAME":"UPPER FRANKLIN DAM","LONGITUDE":-118.425,"LATITUDE":34.091670000000001,"RIVER":" ","YEAR_COMPL":1915,"DAM_HEIGHT":40,"MAX_STORAG":150,"STATE":"CA"}},{"type":"Feature","id":4458,"geometry":{"type":"Point","coordinates":[-13190647.214299999,4069533.4984000027]},"properties":{"FID":4458,"DAM_NAME":"UPPER SAN FERNANDO","LONGITUDE":-118.4936,"LATITUDE":34.302799999999998,"RIVER":"SAN FERNANDO CR","YEAR_COMPL":1921,"DAM_HEIGHT":82,"MAX_STORAG":0,"STATE":"CA"}},{"type":"Feature","id":4474,"geometry":{"type":"Point","coordinates":[-12987800.838100001,3852853.0350999981]},"properties":{"FID":4474,"DAM_NAME":"BARRETT","LONGITUDE":-116.67140000000001,"LATITUDE":32.679600000000001,"RIVER":"COTTONWOOD CR","YEAR_COMPL":1922,"DAM_HEIGHT":161,"MAX_STORAG":0,"STATE":"CA"}},{"type":"Feature","id":4475,"geometry":{"type":"Point","coordinates":[-13031605.057799999,3860579.258100003]},"properties":{"FID":4475,"DAM_NAME":"CHOLLAS","LONGITUDE":-117.06489999999999,"LATITUDE":32.738,"RIVER":"TR CHOLLAS CREEK","YEAR_COMPL":1901,"DAM_HEIGHT":50,"MAX_STORAG":0,"STATE":"CA"}},{"type":"Feature","id":4486,"geometry":{"type":"Point","coordinates":[-13358761.909299999,4646206.0952000022]},"properties":{"FID":4486,"DAM_NAME":"Alpine","LONGITUDE":-120.0038,"LATITUDE":38.471200000000003,"RIVER":"SILVER CREEK","YEAR_COMPL":1891,"DAM_HEIGHT":49,"MAX_STORAG":4300,"STATE":"CA"}},{"type":"Feature","id":4487,"geometry":{"type":"Point","coordinates":[-13358862.096799999,4646348.2810999975]},"properties":{"FID":4487,"DAM_NAME":"ALPINE AUXILIARY NO. 3","LONGITUDE":-120.0047,"LATITUDE":38.472200000000001,"RIVER":"SILVER CREEK","YEAR_COMPL":1891,"DAM_HEIGHT":42,"MAX_STORAG":4300,"STATE":"CA"}},{"type":"Feature","id":4489,"geometry":{"type":"Point","coordinates":[-13415746.3566,4595868.1547999978]},"properties":{"FID":4489,"DAM_NAME":"ROSS","LONGITUDE":-120.5157,"LATITUDE":38.116300000000003,"RIVER":"ANGELS CREEK","YEAR_COMPL":1892,"DAM_HEIGHT":44,"MAX_STORAG":110,"STATE":"CA"}},{"type":"Feature","id":4490,"geometry":{"type":"Point","coordinates":[-13358082.860399999,4640420.8044999987]},"properties":{"FID":4490,"DAM_NAME":"UNION MAIN","LONGITUDE":-119.99769999999999,"LATITUDE":38.430500000000002,"RIVER":"NORTH FORK STANISLAUS RIVER  -","YEAR_COMPL":1910,"DAM_HEIGHT":36,"MAX_STORAG":3283,"STATE":"CA"}},{"type":"Feature","id":4491,"geometry":{"type":"Point","coordinates":[-13357726.638,4641031.8726999983]},"properties":{"FID":4491,"DAM_NAME":"UNION AUXILIARY NO. 7","LONGITUDE":-119.9945,"LATITUDE":38.434800000000003,"RIVER":"NORTH FORK STANISLAUS RIVER  -","YEAR_COMPL":1910,"DAM_HEIGHT":7,"MAX_STORAG":3283,"STATE":"CA"}},{"type":"Feature","id":4492,"geometry":{"type":"Point","coordinates":[-13357782.297699999,4640946.6052000001]},"properties":{"FID":4492,"DAM_NAME":"UNION AUXILIARY NO. 4","LONGITUDE":-119.995,"LATITUDE":38.434199999999997,"RIVER":"NORTH FORK STANISLAUS RIVER  -","YEAR_COMPL":1910,"DAM_HEIGHT":10,"MAX_STORAG":3283,"STATE":"CA"}},{"type":"Feature","id":4493,"geometry":{"type":"Point","coordinates":[-13357871.3533,4640847.1273000017]},"properties":{"FID":4493,"DAM_NAME":"UNION AUXILIARY NO. 3","LONGITUDE":-119.9958,"LATITUDE":38.433500000000002,"RIVER":"NORTH FORK STANISLAUS RIVER  -","YEAR_COMPL":1910,"DAM_HEIGHT":10,"MAX_STORAG":3283,"STATE":"CA"}},{"type":"Feature","id":4494,"geometry":{"type":"Point","coordinates":[-13358706.249499999,4641799.3122999966]},"properties":{"FID":4494,"DAM_NAME":"Utica","LONGITUDE":-120.0033,"LATITUDE":38.440199999999997,"RIVER":"NORTH FORK STANISLAUS RIVER  -","YEAR_COMPL":1903,"DAM_HEIGHT":59,"MAX_STORAG":2500,"STATE":"CA"}},{"type":"Feature","id":4495,"geometry":{"type":"Point","coordinates":[-13358917.7565,4641444.0090000033]},"properties":{"FID":4495,"DAM_NAME":"UTICA AUXILIARY NO. 4","LONGITUDE":-120.0052,"LATITUDE":38.4377,"RIVER":"NORTH FORK STANISLAUS RIVER  -","YEAR_COMPL":1903,"DAM_HEIGHT":10,"MAX_STORAG":2500,"STATE":"CA"}},{"type":"Feature","id":4496,"geometry":{"type":"Point","coordinates":[-13358873.228700001,4641671.4016999975]},"properties":{"FID":4496,"DAM_NAME":"UTICA AUXILIARY NO. 2","LONGITUDE":-120.0048,"LATITUDE":38.439300000000003,"RIVER":"NORTH FORK STANISLAUS RIVER  -","YEAR_COMPL":1903,"DAM_HEIGHT":11,"MAX_STORAG":2500,"STATE":"CA"}},{"type":"Feature","id":4497,"geometry":{"type":"Point","coordinates":[-13359084.7358,4642239.9054000005]},"properties":{"FID":4497,"DAM_NAME":"UTICA AUXILIARY NO. 5","LONGITUDE":-120.0067,"LATITUDE":38.443300000000001,"RIVER":"NORTH FORK STANISLAUS RIVER  -","YEAR_COMPL":1903,"DAM_HEIGHT":7,"MAX_STORAG":2500,"STATE":"CA"}},{"type":"Feature","id":4498,"geometry":{"type":"Point","coordinates":[-13358873.228700001,4641586.128899999]},"properties":{"FID":4498,"DAM_NAME":"UTICA AUXILIARY NO. 3","LONGITUDE":-120.0048,"LATITUDE":38.438699999999997,"RIVER":"NORTH FORK STANISLAUS RIVER  -","YEAR_COMPL":1903,"DAM_HEIGHT":10,"MAX_STORAG":2500,"STATE":"CA"}},{"type":"Feature","id":4500,"geometry":{"type":"Point","coordinates":[-13210829.437899999,4235525.8025999963]},"properties":{"FID":4500,"DAM_NAME":"KERN DIVERSION","LONGITUDE":-118.67489999999999,"LATITUDE":35.525500000000001,"RIVER":"KERN RIVER","YEAR_COMPL":1906,"DAM_HEIGHT":29,"MAX_STORAG":247,"STATE":"CA"}},{"type":"Feature","id":4501,"geometry":{"type":"Point","coordinates":[-13273958.7212,4467440.2687000036]},"properties":{"FID":4501,"DAM_NAME":"BIG CREEK DAM NO. 4","LONGITUDE":-119.242,"LATITUDE":37.203000000000003,"RIVER":"BIG CREEK","YEAR_COMPL":1913,"DAM_HEIGHT":75,"MAX_STORAG":100,"STATE":"CA"}},{"type":"Feature","id":4502,"geometry":{"type":"Point","coordinates":[-13281038.640799999,4466979.0670000017]},"properties":{"FID":4502,"DAM_NAME":"BIG CREEK DAM NO. 5","LONGITUDE":-119.3056,"LATITUDE":37.1997,"RIVER":"BIG CREEK","YEAR_COMPL":1921,"DAM_HEIGHT":60,"MAX_STORAG":74,"STATE":"CA"}},{"type":"Feature","id":4505,"geometry":{"type":"Point","coordinates":[-13271654.4077,4471018.7603999972]},"properties":{"FID":4505,"DAM_NAME":"BIG CREEK DAM NO. 1","LONGITUDE":-119.2213,"LATITUDE":37.2286,"RIVER":"BIG CREEK","YEAR_COMPL":1917,"DAM_HEIGHT":170,"MAX_STORAG":89800,"STATE":"CA"}},{"type":"Feature","id":4506,"geometry":{"type":"Point","coordinates":[-13273079.2972,4470557.4023000002]},"properties":{"FID":4506,"DAM_NAME":"BIG CREEK DAM NO. 3A","LONGITUDE":-119.2341,"LATITUDE":37.225299999999997,"RIVER":"BIG CREEK","YEAR_COMPL":1917,"DAM_HEIGHT":23,"MAX_STORAG":89800,"STATE":"CA"}},{"type":"Feature","id":4507,"geometry":{"type":"Point","coordinates":[-13272266.664900001,4470864.9720999971]},"properties":{"FID":4507,"DAM_NAME":"BIG CREEK DAM NO. 2","LONGITUDE":-119.2268,"LATITUDE":37.227499999999999,"RIVER":"BIG CREEK","YEAR_COMPL":1917,"DAM_HEIGHT":120,"MAX_STORAG":89800,"STATE":"CA"}},{"type":"Feature","id":4508,"geometry":{"type":"Point","coordinates":[-13273146.0889,4470627.3037]},"properties":{"FID":4508,"DAM_NAME":"BIG CREEK DAM NO. 3","LONGITUDE":-119.2347,"LATITUDE":37.2258,"RIVER":"BIG CREEK","YEAR_COMPL":1913,"DAM_HEIGHT":165,"MAX_STORAG":89800,"STATE":"CA"}},{"type":"Feature","id":4509,"geometry":{"type":"Point","coordinates":[-13198183.5438,4358761.3637999967]},"properties":{"FID":4509,"DAM_NAME":"LADY FRANKLIN LAKE","LONGITUDE":-118.5613,"LATITUDE":36.421399999999998,"RIVER":"EFK KAWEAH R","YEAR_COMPL":1905,"DAM_HEIGHT":21,"MAX_STORAG":0,"STATE":"CA"}},{"type":"Feature","id":4513,"geometry":{"type":"Point","coordinates":[-13198506.370299999,4361611.5754999965]},"properties":{"FID":4513,"DAM_NAME":"CRYSTAL LAKE","LONGITUDE":-118.5642,"LATITUDE":36.442,"RIVER":"EFK KAWEAH R","YEAR_COMPL":1903,"DAM_HEIGHT":16.800000000000001,"MAX_STORAG":0,"STATE":"CA"}},{"type":"Feature","id":4514,"geometry":{"type":"Point","coordinates":[-13345180.931400001,4575753.5357000008]},"properties":{"FID":4514,"DAM_NAME":"LAKE ELEANOR","LONGITUDE":-119.8818,"LATITUDE":37.973999999999997,"RIVER":"ELEANOR CREEK","YEAR_COMPL":1918,"DAM_HEIGHT":61,"MAX_STORAG":0,"STATE":"CA"}},{"type":"Feature","id":4515,"geometry":{"type":"Point","coordinates":[-13198228.071600001,4362594.1053000018]},"properties":{"FID":4515,"DAM_NAME":"UPPER MONARCH LAKE","LONGITUDE":-118.5617,"LATITUDE":36.449100000000001,"RIVER":"EFK KAWEAH R","YEAR_COMPL":1905,"DAM_HEIGHT":22,"MAX_STORAG":0,"STATE":"CA"}},{"type":"Feature","id":4523,"geometry":{"type":"Point","coordinates":[-13198762.405099999,4463248.2678999975]},"properties":{"FID":4523,"DAM_NAME":"HILLSIDE","LONGITUDE":-118.5665,"LATITUDE":37.173000000000002,"RIVER":"SOUTH FORK BISHOP CREEK","YEAR_COMPL":1910,"DAM_HEIGHT":81.5,"MAX_STORAG":12883,"STATE":"CA"}},{"type":"Feature","id":4524,"geometry":{"type":"Point","coordinates":[-13209137.3817,4478920.9060000032]},"properties":{"FID":4524,"DAM_NAME":"LONGLEY","LONGITUDE":-118.6597,"LATITUDE":37.2851,"RIVER":"MCGEE CREEK","YEAR_COMPL":1910,"DAM_HEIGHT":27,"MAX_STORAG":178,"STATE":"CA"}},{"type":"Feature","id":4525,"geometry":{"type":"Point","coordinates":[-13203716.122499999,4468726.1494000033]},"properties":{"FID":4525,"DAM_NAME":"SABRINA","LONGITUDE":-118.611,"LATITUDE":37.212200000000003,"RIVER":"MIDDLE FORK BISHOP CREEK","YEAR_COMPL":1908,"DAM_HEIGHT":70,"MAX_STORAG":8376,"STATE":"CA"}},{"type":"Feature","id":4526,"geometry":{"type":"Point","coordinates":[-13200521.2531,4473717.4109999985]},"properties":{"FID":4526,"DAM_NAME":"BISHOP CREEK INTAKE NO. 2","LONGITUDE":-118.5823,"LATITUDE":37.247900000000001,"RIVER":"MIDDLE FORK BISHOP CREEK","YEAR_COMPL":1908,"DAM_HEIGHT":30,"MAX_STORAG":115,"STATE":"CA"}},{"type":"Feature","id":4528,"geometry":{"type":"Point","coordinates":[-13271598.748,4583933.193599999]},"properties":{"FID":4528,"DAM_NAME":"LUNDY LAKE","LONGITUDE":-119.2208,"LATITUDE":38.0319,"RIVER":"MILL CREEK","YEAR_COMPL":1911,"DAM_HEIGHT":48,"MAX_STORAG":4113,"STATE":"CA"}},{"type":"Feature","id":4529,"geometry":{"type":"Point","coordinates":[-13262759.9804,4544324.0143999979]},"properties":{"FID":4529,"DAM_NAME":"GEM LAKE","LONGITUDE":-119.1414,"LATITUDE":37.751100000000001,"RIVER":"RUSH CREEK","YEAR_COMPL":1917,"DAM_HEIGHT":80,"MAX_STORAG":17228,"STATE":"CA"}},{"type":"Feature","id":4530,"geometry":{"type":"Point","coordinates":[-13261680.181299999,4545323.6709999964]},"properties":{"FID":4530,"DAM_NAME":"AGNEW LAKE","LONGITUDE":-119.1317,"LATITUDE":37.758200000000002,"RIVER":"RUSH CREEK","YEAR_COMPL":1916,"DAM_HEIGHT":30,"MAX_STORAG":810,"STATE":"CA"}},{"type":"Feature","id":4531,"geometry":{"type":"Point","coordinates":[-13277443.021200001,4574539.1457000002]},"properties":{"FID":4531,"DAM_NAME":"SADDLEBAG LAKE","LONGITUDE":-119.27330000000001,"LATITUDE":37.965400000000002,"RIVER":"LEE VINING CREEK","YEAR_COMPL":1921,"DAM_HEIGHT":45,"MAX_STORAG":18100,"STATE":"CA"}},{"type":"Feature","id":4536,"geometry":{"type":"Point","coordinates":[-13436039.899799999,5080073.6741999984]},"properties":{"FID":4536,"DAM_NAME":"MCBRIEN","LONGITUDE":-120.69799999999999,"LATITUDE":41.457599999999999,"RIVER":"PIT RIVER","YEAR_COMPL":1880,"DAM_HEIGHT":12,"MAX_STORAG":0,"STATE":"CA"}},{"type":"Feature","id":4537,"geometry":{"type":"Point","coordinates":[-13441706.061799999,5088231.7404000014]},"properties":{"FID":4537,"DAM_NAME":"S-X","LONGITUDE":-120.74890000000001,"LATITUDE":41.512500000000003,"RIVER":"TR PIT RIVER","YEAR_COMPL":1917,"DAM_HEIGHT":45,"MAX_STORAG":0,"STATE":"CA"}},{"type":"Feature","id":4538,"geometry":{"type":"Point","coordinates":[-13445980.7303,5097676.3894999996]},"properties":{"FID":4538,"DAM_NAME":"HUFFMAN ANTELOPE","LONGITUDE":-120.7873,"LATITUDE":41.576000000000001,"RIVER":"CLOVER SWALE","YEAR_COMPL":1922,"DAM_HEIGHT":15,"MAX_STORAG":0,"STATE":"CA"}},{"type":"Feature","id":4540,"geometry":{"type":"Point","coordinates":[-13443683.841800001,5143519.3316000029]},"properties":{"FID":4540,"DAM_NAME":"JANES FLAT","LONGITUDE":-120.7666667,"LATITUDE":41.883333329999999,"RIVER":" ","YEAR_COMPL":1918,"DAM_HEIGHT":22,"MAX_STORAG":0,"STATE":"CA"}},{"type":"Feature","id":4543,"geometry":{"type":"Point","coordinates":[-13421078.5602,5106206.8567999974]},"properties":{"FID":4543,"DAM_NAME":"BIG DOBE NORTH","LONGITUDE":-120.56359999999999,"LATITUDE":41.633299999999998,"RIVER":"TR RATTLESNAKE CR","YEAR_COMPL":1912,"DAM_HEIGHT":9,"MAX_STORAG":0,"STATE":"CA"}},{"type":"Feature","id":4544,"geometry":{"type":"Point","coordinates":[-13421301.199200001,5104940.9509999976]},"properties":{"FID":4544,"DAM_NAME":"BIG DOBE SOUTH","LONGITUDE":-120.5656,"LATITUDE":41.6248,"RIVER":"TR RATTLESNAKE CR","YEAR_COMPL":1912,"DAM_HEIGHT":11,"MAX_STORAG":0,"STATE":"CA"}},{"type":"Feature","id":4548,"geometry":{"type":"Point","coordinates":[-13403311.9695,5037892.7102999985]},"properties":{"FID":4548,"DAM_NAME":"GRAVEN DAM (PVT)","LONGITUDE":-120.404,"LATITUDE":41.173000000000002,"RIVER":"TR CANYON CREEK","YEAR_COMPL":1917,"DAM_HEIGHT":0,"MAX_STORAG":0,"STATE":"CA"}},{"type":"Feature","id":4549,"geometry":{"type":"Point","coordinates":[-13400618.037799999,5077697.3954999968]},"properties":{"FID":4549,"DAM_NAME":"PLUM CANYON","LONGITUDE":-120.3798,"LATITUDE":41.441600000000001,"RIVER":"PLUM CREEK","YEAR_COMPL":1913,"DAM_HEIGHT":26,"MAX_STORAG":0,"STATE":"CA"}},{"type":"Feature","id":4550,"geometry":{"type":"Point","coordinates":[-13434570.4825,5117309.3005999997]},"properties":{"FID":4550,"DAM_NAME":"INGALS SWAMP","LONGITUDE":-120.6848,"LATITUDE":41.707799999999999,"RIVER":"INGALS SWAMP","YEAR_COMPL":1918,"DAM_HEIGHT":23,"MAX_STORAG":0,"STATE":"CA"}},{"type":"Feature","id":4552,"geometry":{"type":"Point","coordinates":[-13430585.2447,5088410.1359999999]},"properties":{"FID":4552,"DAM_NAME":"CUMMINGS RESERVOIR NO 1","LONGITUDE":-120.649,"LATITUDE":41.5137,"RIVER":"WFK ROCK CREEK","YEAR_COMPL":1912,"DAM_HEIGHT":11,"MAX_STORAG":0,"STATE":"CA"}},{"type":"Feature","id":4554,"geometry":{"type":"Point","coordinates":[-13445268.285599999,5067767.9205000028]},"properties":{"FID":4554,"DAM_NAME":"WHITE","LONGITUDE":-120.7809,"LATITUDE":41.374699999999997,"RIVER":"TR PIT RIVER","YEAR_COMPL":1918,"DAM_HEIGHT":16,"MAX_STORAG":0,"STATE":"CA"}},{"type":"Feature","id":4555,"geometry":{"type":"Point","coordinates":[-13449776.7249,5070438.5230000019]},"properties":{"FID":4555,"DAM_NAME":"TORESON","LONGITUDE":-120.8214,"LATITUDE":41.392699999999998,"RIVER":"TOMS CREEK","YEAR_COMPL":1898,"DAM_HEIGHT":55,"MAX_STORAG":0,"STATE":"CA"}},{"type":"Feature","id":4557,"geometry":{"type":"Point","coordinates":[-13484942.552099999,5046237.2220999971]},"properties":{"FID":4557,"DAM_NAME":"ROBERTS","LONGITUDE":-121.1373,"LATITUDE":41.229399999999998,"RIVER":"TR PIT RIVER","YEAR_COMPL":1905,"DAM_HEIGHT":17,"MAX_STORAG":0,"STATE":"CA"}},{"type":"Feature","id":4558,"geometry":{"type":"Point","coordinates":[-13418228.781199999,5147028.7437999994]},